NAME,Longitude,Latitude,URL,LINE
Smith St & Bergen St At Ne Corner (To Manhattan And Queens Only),-73.99027199929638 ,40.686728331297715,http://www.mta.info,F-G
Court St & Montague St At Sw Corner,-73.9906780008789 ,40.69372533216928,http://www.mta.info,2-3-4-5-N-R
Court St & Montague St At Sw Corner,-73.99059199905471 ,40.693642331621014,http://www.mta.info,2-3-4-5-N-R
Clinton St & Montague St At Nw Corner,-73.99253735666481 ,40.69439311951264,http://www.mta.info,2-3-4-5-N-R
Flatbush Ave & Empire Blvd At Sw Corner,-73.96224891505983 ,40.66272735822238,http://www.mta.info,B-Q-S
4th Ave & Union St At Sw Corner (To Bay Ridge And Coney Island Only),-73.983394168523 ,40.67716435313647,http://www.mta.info,D-N-R
4th Ave & Union St At Se Corner (To Manhattan Only),-73.98308231239687 ,40.67705163581421,http://www.mta.info,D-N-R
4th Ave & Union St At Se Corner (To Manhattan Only),-73.98298999681003 ,40.67719509056718,http://www.mta.info,D-N-R
Flatbush Ave & Bergen St At Sw Corner (To New Lots And Flatbush Only),-73.9752089996586 ,40.680699332136946,http://www.mta.info,2-3-4
Lawrence St & Willoughby St At Ne Corner,-73.98621464349429 ,40.69204411365131,http://www.mta.info,N-R
Lawrence St & Willoughby St At Se Corner,-73.98611377104055 ,40.6922584160693,http://www.mta.info,N-R
Hoyt St & Fulton St At Sw Corner (To New Lots And Flatbush Only),-73.98527100196489 ,40.69044933281501,http://www.mta.info,2-3
Bridge St & Fulton St At Ne Corner (To Manhattan Only),-73.9852550009138 ,40.69089533430105,http://www.mta.info,2-3
Duffield St & Fulton St At Nw Corner (To Manhattan Only),-73.98455099823623 ,40.69044233310529,http://www.mta.info,2-3
Duffield St & Fulton St At Ne Corner (To Manhattan Only),-73.98434700115578 ,40.69040733460593,http://www.mta.info,2-3
Bridge St & Willoughby St At Sw Corner,-73.98536143700538 ,40.692095601967445,http://www.mta.info,N-R
Bridge St & Willoughby St At Ne Corner,-73.98519673719659 ,40.69223493884094,http://www.mta.info,N-R
Flatbush Ave & Fleet St At Ne Corner,-73.98215994526204 ,40.69150880161958,http://www.mta.info,B-D-N-Q-R
4th Ave & Pacific St At Nw Corner,-73.97887100025946 ,40.683925333020454,http://www.mta.info,2-3-4-5-B-D-N-Q-R
Ashland Pl & Hanson Pl At Ne Corner,-73.97774737202991 ,40.68515511399471,http://www.mta.info,2-3-4-5-B-D-N-Q-R
Lawrence St & Willoughby St At Ne Corner,-73.98619067591699 ,40.69235659549948,http://www.mta.info,N-R
Smith St & President St At Nw Corner,-73.9943927504754 ,40.68111653102947,http://www.mta.info,F-G
Washington Ave & Eastern Pkwy At Sw Corner,-73.96437533493416 ,40.67187792248519,http://www.mta.info,2-3-4
Washington Ave & Eastern Pkwy At Nw Corner,-73.96415217753747 ,40.672136406270376,http://www.mta.info,2-3-4
Franklin Ave & Eastern Pkwy At Se Corner,-73.95788689838822 ,40.67034264927402,http://www.mta.info,2-3-4-5-S
Franklin Ave & Eastern Pkwy At Ne Corner,-73.95764559593519 ,40.670741030717416,http://www.mta.info,2-3-4-5-S
Franklin Ave & Fulton St At Sw Corner,-73.95569777997811 ,40.681034916213164,http://www.mta.info,A-C-S
Franklin Ave & Eastern Pkwy At Ne Corner,-73.9577203183142 ,40.670926625235474,http://www.mta.info,2-3-4-5-S
Jay St & York St At Sw Corner,-73.98665300003906 ,40.70132133411788,http://www.mta.info,F
Essex St & Delancey St At Nw Corner,-73.98827785776714 ,40.718753074032335,http://www.mta.info,F-J-M-Z
Flatbush Ave & De Kalb Ave At Se Corner,-73.98136070401206 ,40.68986468780064,http://www.mta.info,B-D-N-Q-R
Beach 90th St & Rockaway Frwy At Se Corner,-73.81401044668934 ,40.58772910999135,http://www.mta.info,A-S
Red Cross Pl & Adams St At Sw Corner,-73.98891297872152 ,40.69916149839492,http://www.mta.info,A-C
Sands St & Adams St At Se Corner,-73.98827070476256 ,40.699258549662,http://www.mta.info,A-C
Court St & Joralemon St At Ne Corner,-73.99060228644079 ,40.69260441214509,http://www.mta.info,2-3-4-5-N-R
144-01 Hillside Avenue,-73.81182900070576 ,40.705340333636265,http://www.mta.info,F
1515 Foster Avenue (Enter From Newkirk Ave Pz),-73.96278299962148 ,40.635042334687114,http://www.mta.info,B-Q
37-01 36 Street (To Manhattan And Brooklyn Only),-73.92764099903127 ,40.75221933259898,http://www.mta.info,E-M-R
4902 12 Avenue,-73.99461199971715 ,40.63637533348671,http://www.mta.info,D
1 Barclay Street (Enter On Park Place),-74.00822400016119 ,40.712612332084895,http://www.mta.info,2-3-A-C-E
486 Clinton Avenue (To Manhattan Only),-73.96711601759309 ,40.68367743863933,http://www.mta.info,A-C
1175 Mc Donald Avenue,-73.97577719571558 ,40.624564197747674,http://www.mta.info,F
135-02 89 Avenue,-73.81629903408636 ,40.70097087901288,http://www.mta.info,E
40-02 75 Street,-73.89071415330048 ,40.74655506070698,http://www.mta.info,7-E-F-M-R
1122 Broadway,-73.92966699808947 ,40.693672332740476,http://www.mta.info,J
729 7 Avenue (Uptown Only),-73.9835669980853 ,40.760297332699835,http://www.mta.info,N-Q-R
421 7 Avenue,-73.99065000102587 ,40.75028333388322,http://www.mta.info,1-2-3
401 7 Avenue,-73.99112999976678 ,40.74965633338882,http://www.mta.info,1-2-3
502 Broadway,-73.9505447051535 ,40.70547143940723,http://www.mta.info,G
2 Ann Street,-74.00842799968676 ,40.710692334472014,http://www.mta.info,2-3-4-5-A-C-J-Z
421 7 Avenue,-73.99085399865109 ,40.75031333412546,http://www.mta.info,1-2-3
92-20 Jamaica Avenue,-73.85243999690633 ,40.693432332520246,http://www.mta.info,J-Z
235 Brook Avenue (To Manhattan Only),-73.91931400054645 ,40.80776733502132,http://www.mta.info,6
101 Avenue I,-73.97603746586208 ,40.62614515290905,http://www.mta.info,F
102 Beverly Road,-73.9792400001875 ,40.64271533364951,http://www.mta.info,F
656 5 Avenue,-73.97614600085106 ,40.76042233409885,http://www.mta.info,E-M
1490 Fulton Street (To Queens Only),-73.94135896287963 ,40.67977789566103,http://www.mta.info,A-C
311 7 Avenue (Uptown Only),-73.99313799889386 ,40.747036333741406,http://www.mta.info,1-2
Nassau Pl & Averill Pl At Sw Corner,-74.23900680299468 ,40.51783269375978,http://www.mta.info,@
75 Richmond Terrace,-74.07671914943002 ,40.644724879567114,http://www.mta.info,@
295 Broadway (To Manhattan Only),-73.95800999849698 ,40.70858933343752,http://www.mta.info,J-M-Z
166 6 Avenue,-74.00374700179144 ,40.72558333510693,http://www.mta.info,A-C-E
701 Seneca Avenue,-73.90748099965755 ,40.702836332058396,http://www.mta.info,M
82-01 Roosevelt Avenue,-73.88382899762436 ,40.7478173341866,http://www.mta.info,7
47 Pine Street,-74.00887881856795 ,40.706799954226035,http://www.mta.info,2-3
1025 Longwood Avenue (To Manhattan Only),-73.89623400091776 ,40.81655333231423,http://www.mta.info,6
573 Lafayette Avenue,-73.9516544032217 ,40.69002502607883,http://www.mta.info,G
180 Central Park West,-73.97291800122915 ,40.78089533239274,http://www.mta.info,A-C-B
4761 Broadway,-73.92726600010874 ,40.86575833317052,http://www.mta.info,A
39-16 111 Street,-73.85601699973276 ,40.75169833203271,http://www.mta.info,7
418 Broadway,-74.00161700000605 ,40.71947133251513,http://www.mta.info,4-6-6 Express-J-Z-N-Q-R
462 Flatbush Avenue (Enter From Lincoln Rd),-73.96204895809426 ,40.660858701956336,http://www.mta.info,B-Q-S
956 8 Avenue,-73.98281500076227 ,40.76645233247671,http://www.mta.info,1-2-A-C-B-D
1720 Broadway,-73.91127400072213 ,40.6831813329831,http://www.mta.info,J-Z
856 Fulton Street (To Queens Only),-73.96709508186282 ,40.683388589799904,http://www.mta.info,A-C
42-01 28 Street,-73.93797900019608 ,40.7491433321309,http://www.mta.info,E-M-R
2154 Fulton Street,-73.91063400075645 ,40.67805433491974,http://www.mta.info,A-C
1 Centre Street,-74.00409900180482 ,40.712699334587555,http://www.mta.info,4-5-6-6 Express-J-Z
626 Manhattan Avenue,-73.95059200078252 ,40.72371533223874,http://www.mta.info,G
344 Classon Avenue,-73.9601495342233 ,40.688763233306815,http://www.mta.info,G
40-33 21 Street,-73.942132000631 ,40.75406933235433,http://www.mta.info,F
1824 Broadway,-73.98171700111492 ,40.76870133250205,http://www.mta.info,1-2-A-C-B-D
602 Marcy Avenue,-73.94908000050052 ,40.6939793319714,http://www.mta.info,G
131 East 60 Street,-73.9676369984709 ,40.76264133219434,http://www.mta.info,4-5-6-6 Express-N-Q-R
2137 Nostrand Avenue,-73.94750633350763 ,40.633034617344315,http://www.mta.info,2-5
70 6 Avenue (To Manhattan Only),-73.97476299895135 ,40.680675334318884,http://www.mta.info,2-3-4
Nostrand Ave & Flatbush Ave At Nw Corner,-73.94792800106947 ,40.6332513338326,http://www.mta.info,2-5
Nostrand Ave & Flatbush Ave At Ne Corner,-73.94750600040352 ,40.6328583333864,http://www.mta.info,2-5
Nostrand Ave & Church Ave At Se Corner (To Manhattan Only),-73.94941600172926 ,40.65066333377288,http://www.mta.info,2-5
Nostrand Ave & President St At Ne Corner,-73.95047399873106 ,40.66812833457194,http://www.mta.info,2-5
Nostrand Ave & Eastern Pkwy At Se Corner,-73.9503889993228 ,40.66980433320399,http://www.mta.info,3-4
Marcy Ave & Myrtle Ave At Nw Corner,-73.94942299954094 ,40.695439332414786,http://www.mta.info,G
Schenectady Ave & Eastern Pkwy At Ne Corner,-73.93378899753256 ,40.66902733202899,http://www.mta.info,3-4
Utica Ave & Eastern Pkwy At Se Corner,-73.93102884224167 ,40.66868046959047,http://www.mta.info,3-4
Broadway & Myrtle Ave At Nw Corner,-73.93545257786515 ,40.69685193407327,http://www.mta.info,J-Z
Bedford Ave & N 7th St At Se Corner,-73.95768699987525 ,40.71771933363146,http://www.mta.info,L
Union Ave & Flushing Ave At Ne Corner (To Queens Only),-73.94991299999411 ,40.69996633201096,http://www.mta.info,G
Hewes St & Broadway At Ne Corner,-73.95234399890721 ,40.70662733227162,http://www.mta.info,J-M
Union Ave & Metropolitan Ave At Se Corner,-73.95144499803938 ,40.7137683339522,http://www.mta.info,G-L
Lorimer St & Broadway At Sw Corner,-73.94668799939623 ,40.70331333418702,http://www.mta.info,J-M
Flushing Ave & Broadway At Se Corner,-73.94223514739384 ,40.70059523065588,http://www.mta.info,J-M
Manhattan Ave & Norman Ave At Nw Corner,-73.95190599950658 ,40.72547833294185,http://www.mta.info,G
Manhattan Ave & Nassau Ave At Nw Corner,-73.95092800193129 ,40.72381033210958,http://www.mta.info,G
Graham Ave & Metropolitan Ave At Se Corner (To Canarsie Only),-73.94424800001079 ,40.71444933421255,http://www.mta.info,L
Grand St & Bushwick Ave At Ne Corner (To Canarsie Only),-73.94089199996725 ,40.712035332785035,http://www.mta.info,L
Morgan Ave & Harrison Pl At Sw Corner,-73.9319889995685 ,40.706234334594555,http://www.mta.info,L
Manhattan Ave & India St At Se Corner,-73.95441499879658 ,40.73227033388143,http://www.mta.info,G
Rutland Rd & E. 98th St At Ne Corner,-73.92266300147229 ,40.664932333566156,http://www.mta.info,3-4
Saratoga Ave & Livonia Ave At Ne Corner,-73.91534499820608 ,40.6616753335052,http://www.mta.info,3-4
Glenwood Rd & Rockaway Pkwy At Nw Corner,-73.90249800129047 ,40.64554533359943,http://www.mta.info,L
Ralph Ave & Fulton St At Se Corner,-73.92151692997334 ,40.67871429673853,http://www.mta.info,A-C
Hopkinson Ave & Fulton St At Nw Corner,-73.91376868305329 ,40.678592624337085,http://www.mta.info,A-C
Palmetto St & Broadway At Sw Corner,-73.92156499991555 ,40.68906833164427,http://www.mta.info,J-Z
Jefferson Ave & Broadway At Ne Corner,-73.9172950000136 ,40.68693333268985,http://www.mta.info,J
Linden St & Broadway At Nw Corner,-73.92294800031634 ,40.69014133240498,http://www.mta.info,J-Z
Snediker Ave & New York Ave At Sw Corner,-73.90280546701854 ,40.67569802626433,http://www.mta.info,L
Alabama Av & Fulton St At Se Corner,-73.89958599910177 ,40.67676933350229,http://www.mta.info,J
Pennsylvania Ave & Liberty Ave At Sw Corner,-73.8966689994108 ,40.67423933226326,http://www.mta.info,A-C
Lirr Bay Ridge Divide & Wilson Ave At Nw Corner,-73.90467903873439 ,40.68878759881985,http://www.mta.info,L
Van Siclen Ave & Pitkin Ave At Se Corner,-73.89015300028416 ,40.67250633415435,http://www.mta.info,A-C
Ashford St & Livonia Av At Sw Corner,-73.88328999675845 ,40.666281332288065,http://www.mta.info,3-4
Shepherd Ave & Pitkin Ave At Se Corner,-73.88066499711297 ,40.67400133193887,http://www.mta.info,A-C
Euclid Ave & Pitkin Ave At Sw Corner,-73.87208699769359 ,40.675268332463155,http://www.mta.info,A-C-S
Euclid Ave & Pitkin Ave At Nw Corner,-73.87208599841159 ,40.67548833401942,http://www.mta.info,A-C-S
Starr St & Wyckoff Ave At Se Corner,-73.9221190000721 ,40.70601433381925,http://www.mta.info,L
Dekalb Ave & Wycoff Ave At Se Corner,-73.91927299967011 ,40.70415333209876,http://www.mta.info,L
Stanhope St & Wycoff Ave At Sw Corner,-73.91795899905247 ,40.703342331754556,http://www.mta.info,L
Stanhope St & Wycoff Ave At Ne Corner,-73.91760599993933 ,40.70346133227499,http://www.mta.info,L
Jefferson St & Wyckoff Ave At Nw Corner,-73.92372300153897 ,40.70724233416858,http://www.mta.info,L
Starr St & Wyckoff Ave At Ne Corner,-73.9219309979568 ,40.706216333539494,http://www.mta.info,L
Forest Ave & Myrtle Ave At Nw Corner,-73.90220800033413 ,40.70481633220903,http://www.mta.info,M
62nd St & 67th Ave At Se Corner,-73.89555909937303 ,40.7061153811849,http://www.mta.info,M
Britton Ave & Broadway At Nw Corner,-73.88270099911361 ,40.7429453340658,http://www.mta.info,E-M-R
126th St & Roosevelt Ave At Nw Corner,-73.8458003934579 ,40.754827896442706,http://www.mta.info,7-7 Express
126th St & Roosevelt Ave At Sw Corner,-73.84601379262429 ,40.75423698295849,http://www.mta.info,7-7 Express
64th Rd & Queens Blvd At Nw Corner,-73.85955372805647 ,40.729325244709045,http://www.mta.info,E-M-R
75th St & Jamaica At Nw Corner,-73.86659543521641 ,40.691471443383264,http://www.mta.info,J-Z
104th St & Jamaica Ave At Ne Corner,-73.84329542847318 ,40.695268629061566,http://www.mta.info,J-Z
Van Wyck Expwy & 89th Ave At Sw Corner,-73.81641338400604 ,40.701204446886,http://www.mta.info,E
Flushing Ave & Broadway At Se Corner,-73.9419950195667 ,40.70062960359589,http://www.mta.info,J-M
Halsey St & Wycoff Ave At Sw Corner (To Canarsie Only),-73.9052643131339 ,40.69571257204069,http://www.mta.info,L
Utica Ave & Fulton St At Nw Corner,-73.9297254888829 ,40.67948709980834,http://www.mta.info,A-C
Washington Ave & Lafayette Ave At Ne Corner,-73.965670010997 ,40.68835812522105,http://www.mta.info,G
Clinton Ave & Lafayette Ave At Sw Corner,-73.96788613122749 ,40.687833512358885,http://www.mta.info,G
Bedford Ave & Lafayette Ave At Se Corner,-73.95496904120918 ,40.68933096383658,http://www.mta.info,G
Bedford Ave & Lafayette Ave At Nw Corner,-73.95528961373456 ,40.68955302881855,http://www.mta.info,G
Utica Ave & Eastern Pkwy At Se Corner,-73.93072282125708 ,40.668664701074725,http://www.mta.info,3-4
St. Pauls Pl & Caton Ave At Se Corner,-73.96283995927298 ,40.65145808174842,http://www.mta.info,B-Q
8th St & Surf Ave At Nw Corner,-73.97699869575096 ,40.57549884863381,http://www.mta.info,F-Q
4th Ave & 10th St At Nw Corner,-73.98947403263381 ,40.669850708349585,http://www.mta.info,D-F-G-N-R
Mcdonald Ave & Avenue J At Nw Corner,-73.97615660793947 ,40.6245281414104,http://www.mta.info,F
Main St & Utah St At Nw Corner,-74.2509668373961 ,40.51321562805336,http://www.mta.info,@
Tracy Av & Arthur Kill Rd At Nw Corner,-74.24543269040512 ,40.51538867567504,http://www.mta.info,@
90th St & Roosevelt Ave At Nw Corner,-73.87657599780526 ,40.74854733204278,http://www.mta.info,7
Woodhaven Blvd & Queens Blvd At Sw Corner,-73.87097300040743 ,40.73333033172732,http://www.mta.info,E-M-R
Horace Harding Expwy & Queens Blvd At Ne Corner,-73.86873299813652 ,40.73321333308055,http://www.mta.info,E-M-R
103rd St & Roosevelt Ave At Se Corner,-73.86230299936584 ,40.74977733348032,http://www.mta.info,7
67th Ave & Queens Blvd At Se Corner,-73.85349199970813 ,40.72659533419672,http://www.mta.info,E-M-R
71st & Queens Blvd At Ne Corner,-73.84338199924024 ,40.72149633379517,http://www.mta.info,E-F-M-R
Union Tpke & Queens Blvd At Se Corner,-73.83132799716377 ,40.71397033389443,http://www.mta.info,E-F
75th & Queens Blvd At Nw Corner (To Manhattan And Brooklyn Only),-73.83798439668988 ,40.71902352938854,http://www.mta.info,E-F
Union Tpke & Queens Blvd At Nw Corner,-73.8314850004449 ,40.714928333423615,http://www.mta.info,E-F
Main St & Roosevelt Ave At Se Corner,-73.82990999854457 ,40.75939033244887,http://www.mta.info,7-7 Express
Main St & Roosevelt Ave At Ne Corner,-73.8299619987652 ,40.75971033237781,http://www.mta.info,7-7 Express
Van Wyck Blvd & Queens Blvd At Sw Corner (To Jamaica Only),-73.82010000020064 ,40.708092332517346,http://www.mta.info,E-F
Van Wyck Expwy & Jamaica Ave At Nw Corner,-73.81719099905892 ,40.70266133292056,http://www.mta.info,E
Sutphin Blvd & Archer Ave At Nw Corner,-73.80789400054414 ,40.700768334128405,http://www.mta.info,E-J-Z
Sutphin Blvd & Hillside Ave At Se Corner,-73.80949099847594 ,40.70565033390066,http://www.mta.info,F
153rd St & Hillside Ave At Sw Corner,-73.8044910003926 ,40.70709133377138,http://www.mta.info,F
Parsons Blvd & Hillside Ave At Sw Corner,-73.8027959971636 ,40.7075553332315,http://www.mta.info,F
168th St & Hillside Ave At Nw Corner,-73.79491499769279 ,40.710147332666914,http://www.mta.info,F
169th St & Hillside Ave At Nw Corner,-73.79321299740437 ,40.71082133209386,http://www.mta.info,F
169th St & Hillside Ave At Ne Corner,-73.79294799611644 ,40.71094733202058,http://www.mta.info,F
179th St & Hillside Ave At Sw Corner,-73.78450099997391 ,40.71233533423939,http://www.mta.info,F
179th St & Hillside Ave At Se Corner,-73.78430399797587 ,40.71240033196167,http://www.mta.info,F
180th St & Hillside Ave At Nw Corner,-73.78331399901316 ,40.71290833256529,http://www.mta.info,F
180th St & Hillside Ave At Sw Corner,-73.78265200055206 ,40.7127763330441,http://www.mta.info,F
Beach 22nd St & Mott Ave At Sw Corner,-73.7541728188226 ,40.60474077773217,http://www.mta.info,A
Beach 106th St & Rockaway Frwy At Nw Corner,-73.82757699925496 ,40.583085332106755,http://www.mta.info,A-S
Beach 106th St & Rockaway Frwy At Nw Corner,-73.82716600026558 ,40.58349133416685,http://www.mta.info,A-S
Beach 98th St & Rockaway Frwy At Nw Corner,-73.82029499964389 ,40.5855713330171,http://www.mta.info,A-S
Beach 67th St & Rockaway Frwy At Sw Corner,-73.79658499936633 ,40.590840334007666,http://www.mta.info,A
Beach 69th St & Rockaway Frwy At Se Corner,-73.7961000006358 ,40.591176333331646,http://www.mta.info,A
Beach 59th Sr & Rockaway Frwy At Sw Corner,-73.78914999938368 ,40.592231333730325,http://www.mta.info,A
Beach 45th St & Edgemere Ave At Sw Corner,-73.77616499818905 ,40.59282633167988,http://www.mta.info,A
Beach 45th St & Edgemere Ave At Ne Corner,-73.77604699737029 ,40.59309233555518,http://www.mta.info,A
Beach 35th & Rockaway Frwy At Sw Corner,-73.76788499761568 ,40.59541233222572,http://www.mta.info,A
Alabama Av & Fulton St At Se Corner,-73.89958599910177 ,40.67676933350229,http://www.mta.info,J
Turnbull Ave & E 105th St At Se Corner,-73.89917839374357 ,40.651420852177374,http://www.mta.info,L
8th Ave & 14th St At Sw Corner,-74.00280399973542 ,40.739734332064046,http://www.mta.info,A-C-E-L
8th Ave & 14th St At Nw Corner,-74.00265499859174 ,40.73994933238215,http://www.mta.info,A-C-E-L
8th Ave & 14th St At Ne Corner,-74.00225599860114 ,40.739776334202176,http://www.mta.info,A-C-E-L
8th Ave & 15th St At Ne Corner,-74.00176200187924 ,40.740419333338856,http://www.mta.info,A-C-E-L
8th Ave & 16th St At Se Corner,-74.00140199966894 ,40.740944332239174,http://www.mta.info,A-C-E-L
8th Ave & 16th St At Ne Corner,-74.00130799968929 ,40.74105733212918,http://www.mta.info,A-C-E-L
Fulton St & Nassau St At Ne Corner,-74.0075620007281 ,40.71020733187347,http://www.mta.info,2-3-4-5-A-C-J-Z
8th Ave & 23rd St At Sw Corner,-73.99877099960112 ,40.74527833406074,http://www.mta.info,A-C-E
8th Ave & 23rd St At Nw Corner,-73.9986420009571 ,40.74550533419756,http://www.mta.info,A-C-E
6th Ave & 14th St At Sw Corner,-73.99722000022163 ,40.73742333473165,http://www.mta.info,1-2-3-L-F-M
6th Ave & 14th St At Nw Corner,-73.99711099918014 ,40.73757233368856,http://www.mta.info,1-2-3-L-F-M
6th Ave & 14th St At Se Corner,-73.99670399878663 ,40.73719733436228,http://www.mta.info,1-2-3-L-F-M
6th Ave & 14th St At Se Corner,-73.99657800158741 ,40.737149332617854,http://www.mta.info,1-2-3-L-F-M
6th Ave & 14th St At Ne Corner,-73.99643700059151 ,40.73728633350565,http://www.mta.info,1-2-3-L-F-M
6th Ave & 16th St At Se Corner,-73.99568500126198 ,40.7385293338045,http://www.mta.info,1-2-3-L-F-M
4th Ave & 14th St At Sw Corner,-73.99017299900027 ,40.734474334684464,http://www.mta.info,4-5-6-6 Express-L-N-Q-R
Broadway & 14th St At Sw Corner,-73.99127699905243 ,40.7348913318472,http://www.mta.info,4-5-6-6 Express-L-N-Q-R
4th Ave & 15th St At Sw Corner,-73.99028299841088 ,40.735344334500645,http://www.mta.info,4-5-6-6 Express-L-N-Q-R
Broadway & 16th St At Ne Corner,-73.99044699855206 ,40.7365233318223,http://www.mta.info,4-5-6-6 Express-L-N-Q-R
7th Ave & 18th St At Nw Corner (Downtown Only),-73.99803500063747 ,40.74120633285683,http://www.mta.info,1-2
7th Ave & 18th St At Se Corner (Uptown Only),-73.99769799876596 ,40.740920334529264,http://www.mta.info,1-2
7th Ave & 18th St At Nw Corner (Downtown Only),-73.99755699899661 ,40.741783333492364,http://www.mta.info,1-2
7th Ave & 18th St At Ne Corner (Uptown Only),-73.99719699972003 ,40.74161733318852,http://www.mta.info,1-2
8th Ave & 23rd St At Ne Corner,-73.99814500173918 ,40.74529933406952,http://www.mta.info,A-C-E
8th Ave & 24th St At Nw Corner,-73.99814499991251 ,40.746110332904976,http://www.mta.info,A-C-E
8th Ave & 25th St At Sw Corner,-73.99780100062048 ,40.74660333304583,http://www.mta.info,A-C-E
Church St & Warren St At Se Corner,-74.00835699967573 ,40.714200331567845,http://www.mta.info,2-3-A-C-E
Broadway & Warren St At Ne Corner,-74.00676000165208 ,40.71343733268769,http://www.mta.info,N-R
8th Ave & 25th St At Nw Corner,-73.9977109996864 ,40.746732332153954,http://www.mta.info,A-C-E
8th Ave & 25th St At Ne Corner,-73.99714200051643 ,40.7464833344919,http://www.mta.info,A-C-E
7th Ave & 23rd St At Se Corner (Uptown Only),-73.9956080015643 ,40.743910333969666,http://www.mta.info,1-2
7th Ave & 23rd St At Nw Corner (Downtown Only),-73.99581100057392 ,40.74431333307516,http://www.mta.info,1-2
7th Ave & 23rd St At Ne Corner (Uptown Only),-73.99534799900128 ,40.74412033241566,http://www.mta.info,1-2
6th Ave & 23rd St At Nw Corner (Downtown Only),-73.99309900177428 ,40.743121333706895,http://www.mta.info,F-M
8th Ave & 33rd St At Sw Corner,-73.99424300103728 ,40.75156133439031,http://www.mta.info,A-C-E
7th Ave & 28th St At Sw Corner (Downtown Only),-73.99361100056807 ,40.74726433263882,http://www.mta.info,1-2
7th Ave & 28th St At Ne Corner (Uptown Only),-73.9931209994841 ,40.747216334341914,http://www.mta.info,1-2
7th Ave & 33rd St At Nw Corner,-73.99125399941548 ,40.75047633369315,http://www.mta.info,1-2-3
7th Ave & 34th St At Se Corner,-73.99048099852789 ,40.750810333718945,http://www.mta.info,1-2-3
8th Ave & 33rd St At Se Corner,-73.99388699825342 ,40.7512913338266,http://www.mta.info,A-C-E
8th Ave & 33rd St At Nw Corner,-73.99410700084195 ,40.75167733374009,http://www.mta.info,A-C-E
8th Ave & 34th St At Se Corner,-73.99335199859152 ,40.752020334237834,http://www.mta.info,A-C-E
8th Ave & 34th St At Nw Corner,-73.99367899939939 ,40.75242733242324,http://www.mta.info,A-C-E
8th Ave & 34th St At Ne Corner,-73.99310900083404 ,40.75216133417426,http://www.mta.info,A-C-E
8th Ave & 35th St At Nw Corner,-73.99318799778126 ,40.753032334972936,http://www.mta.info,A-C-E
8th Ave & 35th St At Ne Corner,-73.9925960017387 ,40.75276633169163,http://www.mta.info,A-C-E
7th Ave & 34th St At Nw Corner,-73.99079099811425 ,40.751187333053664,http://www.mta.info,1-2-3
8th Ave & 40th St At Ne Corner,-73.99049200141643 ,40.75593033509672,http://www.mta.info,1-2-3-7-7 Express-S-A-C-E-N-Q-R
4th Ave & 14th St At Se Corner,-73.98954700160037 ,40.73420633293512,http://www.mta.info,4-5-6-6 Express-L-N-Q-R
3rd Ave & 14th St At Se Corner (To Brooklyn Only),-73.98665699952912 ,40.73296133315086,http://www.mta.info,L
3rd Ave & 14th St At Ne Corner (To 8 Av Only),-73.98693100116846 ,40.73327733241512,http://www.mta.info,L
1st Ave & 14th St At Se Corner (To Brooklyn Only),-73.98262500183085 ,40.73105033359967,http://www.mta.info,L
1st Ave & 14th St At Se Corner (To Brooklyn Only),-73.98256300038386 ,40.731118333895935,http://www.mta.info,L
1st Ave & 14th St At Ne Corner (To 8 Av Only),-73.98211200205208 ,40.73139733493346,http://www.mta.info,L
Broadway & 22nd St At Nw Corner (Downtown Only),-73.98963200002481 ,40.74075833426146,http://www.mta.info,N-R
5th Ave & 22nd St At Ne Corner (Downtown Only),-73.98963900024663 ,40.74127133477862,http://www.mta.info,N-R
Chambers St & West Broadway At Sw Corner,-74.00945299912433 ,40.71544433188584,http://www.mta.info,1-2-3
Chambers St & West Broadway At Se Corner,-74.00921100107908 ,40.71534933374139,http://www.mta.info,1-2-3
Chambers St & West Broadway At Ne Corner,-74.00903100035734 ,40.71557633352443,http://www.mta.info,1-2-3
Church St & Chambers St At Sw Corner,-74.00816199935295 ,40.714873334479,http://www.mta.info,2-3-A-C-E
Church St & Chambers St At Se Corner,-74.00790300058148 ,40.71477733183442,http://www.mta.info,2-3-A-C-E
Church St & Chambers St At Ne Corner,-74.00773900117993 ,40.71499233199675,http://www.mta.info,2-3-A-C-E
Varick St & Franklin St At Sw Corner (Downtown Only),-74.00712099911844 ,40.71896533227628,http://www.mta.info,1
West Broadway & Franklin St At Sw Corner (Uptown Only),-74.00667500019637 ,40.71900133274834,http://www.mta.info,1
Varick St & North Moore St At Ne Corner (Uptown Only),-74.00662000182307 ,40.7199183319765,http://www.mta.info,1
Canal St & Varick St At Nw Corner (Downtown Only),-74.00662000117107 ,40.72293233191116,http://www.mta.info,1
Broadway & 23rd St At Nw Corner (Downtown Only),-73.98940399913259 ,40.74197933244523,http://www.mta.info,N-R
Broadway & 23rd St At Se Corner (Uptown Only),-73.9890829976029 ,40.74108033425886,http://www.mta.info,N-R
Broadway & 23rd St At Ne Corner (Uptown Only),-73.98889499742994 ,40.741378332766864,http://www.mta.info,N-R
Broadway & 23rd St At Ne Corner (Uptown Only),-73.9889889991758 ,40.74153933253992,http://www.mta.info,N-R
Park Ave & 23rd St At Sw Corner (Downtown Only),-73.9866010015298 ,40.74009733256944,http://www.mta.info,4-6-6 Express
Park Ave & 23rd St At Sw Corner (Downtown Only),-73.98661699970192 ,40.74018033353675,http://www.mta.info,4-6-6 Express
Park Ave & 23rd St At Se Corner (Uptown Only),-73.98623300097529 ,40.74000833431777,http://www.mta.info,4-6-6 Express
Broadway & 28th St At Nw Corner (Downtown Only),-73.9890099998999 ,40.74548833244827,http://www.mta.info,N-R
Broadway & 28th St At Se Corner (Uptown Only),-73.98848599937949 ,40.74509333396839,http://www.mta.info,N-R
Park Ave & 23rd St At Ne Corner (Uptown Only),-73.98600600039508 ,40.74018033498224,http://www.mta.info,4-6-6 Express
Park Ave & 28th St At Sw Corner (Downtown Only),-73.98440899802894 ,40.74339433378107,http://www.mta.info,4-6-6 Express
Park Ave & 28th St At Nw Corner (Downtown Only),-73.98428000238668 ,40.74348433349416,http://www.mta.info,4-6-6 Express
Park Ave & 28th St At Se Corner (Uptown Only),-73.98389600015412 ,40.74316733317544,http://www.mta.info,4-6-6 Express
Park Ave & 28th St At Ne Corner (Uptown Only),-73.98385699922207 ,40.7433043315516,http://www.mta.info,4-6-6 Express
Park Ave & 32nd St At Sw Corner (Downtown Only),-73.98253099937597 ,40.74572333423049,http://www.mta.info,4-6-6 Express
Park Ave & 32nd St At Se Corner (Uptown Only),-73.98219800090104 ,40.74558533479224,http://www.mta.info,4-6-6 Express
Park Ave & 33rd St At Se Corner (Uptown Only),-73.98166300023647 ,40.746263332957504,http://www.mta.info,4-6-6 Express
Park Ave & 33rd St At Ne Corner (Uptown Only),-73.98153299877096 ,40.746550332503666,http://www.mta.info,4-6-6 Express
6th Ave & 32nd St At Nw Corner,-73.9887051375491 ,40.748747211899094,http://www.mta.info,B-D-F-M-N-Q-R
Broadway & 34th St At Nw Corner,-73.98811299747757 ,40.75007633227841,http://www.mta.info,B-D-F-M-N-Q-R
Broadway & 32nd St At Ne Corner,-73.98804499886009 ,40.748361332722155,http://www.mta.info,B-D-F-M-N-Q-R
6th Ave & 35th St At Nw Corner,-73.98735099964003 ,40.75064233344667,http://www.mta.info,B-D-F-M-N-Q-R
7th Ave & 40th St At Se Corner,-73.98782699883756 ,40.754568332905485,http://www.mta.info,1-2-3-7-7 Express-S-A-C-E-N-Q-R
Broadway & 40th St At Ne Corner,-73.98662300211957 ,40.75430133295249,http://www.mta.info,1-2-3-7-7 Express-S-A-C-E-N-Q-R
6th Ave & 40th St At Nw Corner,-73.98508399907118 ,40.753709332683876,http://www.mta.info,7-7 Express-B-D-F-M
6th Ave & 40th St At Se Corner,-73.98489199843287 ,40.75340833265748,http://www.mta.info,7-7 Express-B-D-F-M
State St & Whitehall St At   Corner,-74.01311700150424 ,40.70201933328759,http://www.mta.info,N-R
State & Battery Pl At Sw Corner,-74.01450900195363 ,40.704157332810105,http://www.mta.info,4-5
Broadway & Battery Pl At Nw Corner,-74.01457200010785 ,40.70482533148995,http://www.mta.info,4-5
Stone St & Whitehall St At Sw Corner,-74.01328400079315 ,40.70401533147374,http://www.mta.info,N-R
Broadway & Bowling Green At Nw Corner,-74.0135539995166 ,40.70463433334399,http://www.mta.info,4-5
Stone St & Whitehall St At Ne Corner,-74.01300199916565 ,40.70412333249192,http://www.mta.info,N-R
Broad St & Exchange Pl At Sw Corner,-74.01154000034072 ,40.7057723342354,http://www.mta.info,J-Z
Broad St & Exchange Pl At Se Corner,-74.01128699963394 ,40.705828332617436,http://www.mta.info,J-Z
Greenwich St & Morris St At Nw Corner (Downtown Only),-74.01429899958129 ,40.7065123344541,http://www.mta.info,1
Greenwich St & Morris St At Ne Corner (Uptown Only),-74.01411400012596 ,40.70655333369836,http://www.mta.info,1
Greenwich St & Rector St At Sw Corner (Downtown Only),-74.0138669991328 ,40.70755833422546,http://www.mta.info,1
Trinity Pl & Rector St At Sw Corner (Downtown Only),-74.01326699952585 ,40.70751333295881,http://www.mta.info,N-R
Trinity Pl & Rector St At Sw Corner (Downtown Only),-74.01311800065332 ,40.7077213344071,http://www.mta.info,N-R
Trinity Pl & Rector St At Se Corner (Uptown Only),-74.01292399956111 ,40.707647332420976,http://www.mta.info,N-R
Trinity Pl & Rector St At Nw Corner (Downtown Only),-74.01286200145825 ,40.70806333359449,http://www.mta.info,N-R
Trinity Pl & Rector St At Ne Corner (Uptown Only),-74.01270399876682 ,40.708009333975234,http://www.mta.info,N-R
Greenwich St & Rector St At Nw Corner (Downtown Only),-74.01360299826662 ,40.70816133218132,http://www.mta.info,1
Broadway & Rector St At Sw Corner,-74.01216100019847 ,40.70731533266479,http://www.mta.info,4-5
Broadway & Rector St At Nw Corner,-74.01192701217697 ,40.707577311337815,http://www.mta.info,4-5
Broadway & Rector St At Se Corner,-74.01199699882218 ,40.707190333399716,http://www.mta.info,4-5
Broadway & Wall St At Se Corner,-74.01184799885795 ,40.707446333903725,http://www.mta.info,4-5
Broad St & Exchange Pl At Nw Corner,-74.01127399969305 ,40.70637933169944,http://www.mta.info,J-Z
Broad St & Exchange Pl At Se Corner,-74.01112800071259 ,40.70614233304806,http://www.mta.info,J-Z
Broad St & Wall St At Se Corner,-74.01068899958614 ,40.70690133254501,http://www.mta.info,J-Z
Church St & Cortlandt St At Se Corner (Uptown Only),-74.01119800178408 ,40.71020133482054,http://www.mta.info,N-R
Church St & Cortlandt St At Ne Corner (Uptown Only),-74.01106599816931 ,40.71043533325965,http://www.mta.info,N-R
Church St & Dey St At Se Corner (Uptown Only),-74.01064399894094 ,40.711065333886026,http://www.mta.info,N-R
Broad St & Wall St At Se Corner,-74.01048899982149 ,40.706931331342346,http://www.mta.info,J-Z
William St & Wall St At Sw Corner,-74.00965800078511 ,40.70638533361831,http://www.mta.info,2-3
William St & Wall St At Se Corner,-74.00944700113091 ,40.70627233238546,http://www.mta.info,2-3
William St & Wall St At Nw Corner,-74.00954400036744 ,40.706506332033584,http://www.mta.info,2-3
William St & Cedar St At Nw Corner,-74.00877800050995 ,40.70743133158965,http://www.mta.info,2-3
Fulton St & Nassau St At Se Corner,-74.0076479984132 ,40.71010633317294,http://www.mta.info,2-3-4-5-A-C-J-Z
Broadway & Dey St At Sw Corner,-74.00969599913992 ,40.7104543319046,http://www.mta.info,2-3-4-5-A-C-J-Z
Church St & Fulton St At Ne Corner,-74.01020400096616 ,40.711710332591856,http://www.mta.info,2-3-A-C-E
Broadway & John St At Se Corner,-74.00942200199903 ,40.710168334660864,http://www.mta.info,2-3-4-5-A-C-J-Z
Broadway & Fulton St At Sw Corner,-74.00926600221945 ,40.710913332750486,http://www.mta.info,2-3-4-5-A-C-J-Z
Church St & Vesey St At Nw Corner,-74.01030600121183 ,40.71225833511379,http://www.mta.info,2-3-A-C-E
Church St & Park Pl At Se Corner,-74.00924500076478 ,40.71303633408338,http://www.mta.info,2-3-A-C-E
Church St & Park Pl At Sw Corner,-74.00951100278516 ,40.71328633302581,http://www.mta.info,2-3-A-C-E
Church St & Park Pl At Ne Corner,-74.00903300069416 ,40.71333333401827,http://www.mta.info,2-3-A-C-E
Church St & Murray St At Nw Corner,-74.00895999883755 ,40.71394933311108,http://www.mta.info,2-3-A-C-E
7th Ave & 12th St At Ne Corner,-74.00039999905357 ,40.73719733347973,http://www.mta.info,1-2-3-L-F-M
7th Ave & 13th St At Nw Corner,-74.00032899936974 ,40.73801333240411,http://www.mta.info,1-2-3-L-F-M
7th Ave & 14th St At Sw Corner,-73.99991400187947 ,40.73848433188827,http://www.mta.info,1-2-3-L-F-M
7th Ave & 14th St At Se Corner,-73.99965599929789 ,40.73835833437164,http://www.mta.info,1-2-3-L-F-M
40-33 21 Street,-73.94193509490108 ,40.754255381101494,http://www.mta.info,F
908 Fulton Street (To Queens Only),-73.9645553265429 ,40.68282619698893,http://www.mta.info,A-C
36 Bond Street,-73.98421600194636 ,40.688396332996575,http://www.mta.info,A-C-G
27 Cleveland Place (Uptown Only),-73.9969120004673 ,40.72211633228835,http://www.mta.info,4-6-6 Express
137 East 42 Street (Enter From E 43 St),-73.97529400010626 ,40.75180133200574,http://www.mta.info,4-5-6-6 Express-7-7 Express-S
481 8 Avenue,-73.99324399810136 ,40.75287733387367,http://www.mta.info,A-C-E
368 Jay Street,-73.98744207528698 ,40.69296784180015,http://www.mta.info,A-C-F
133 Greenpoint Avenue,-73.95443199933749 ,40.73031033218001,http://www.mta.info,G
1745 Palmetto Street,-73.90788799869827 ,40.70280133424807,http://www.mta.info,M
640 3 Avenue,-73.97507769898257 ,40.75085087814938,http://www.mta.info,4-5-6-6 Express-7-7 Express-S
Richmond Valley Rd & Richmond Valley Rd At Se Corner,-74.22954798751282 ,40.51960144448874,http://www.mta.info,@
Weiner St & Richmond Valley Rd At Sw Corner,-74.22891198744568 ,40.51976615766661,http://www.mta.info,@
Richmond Valley Rd & Amboy Rd At Nw Corner,-74.22867964420347 ,40.51967127900659,http://www.mta.info,@
Amboy Rd & Penton St At Nw Corner,-74.21681223195147 ,40.52248948401071,http://www.mta.info,@
Seguine Av & Herbert St At Ne Corner,-74.20066738324562 ,40.525105174108205,http://www.mta.info,@
Belfield Av & N Railroad St At Sw Corner,-74.17843705768523 ,40.54055390739186,http://www.mta.info,@
Richmond Av & Eltingville Bl At Se Corner,-74.16521432363767 ,40.544388119342955,http://www.mta.info,@
Richmond Av & Mosely Av At Ne Corner,-74.16504799396364 ,40.54420838045056,http://www.mta.info,@
Nelson Av & Brower St At Ne Corner,-74.15149039643744 ,40.551045162452226,http://www.mta.info,@
Annadale Rd & N Railroad St At Sw Corner,-74.17746136211117 ,40.54064064270105,http://www.mta.info,@
Bay Te & S Railroad Av At Ne Corner,-74.13746844656455 ,40.55599897260452,http://www.mta.info,@
Oak Av & S Railroad Av At Nw Corner,-74.12605866912021 ,40.56516899327659,http://www.mta.info,@
Guyon Av & N Railroad Av At Se Corner,-74.12687588407292 ,40.564657048641244,http://www.mta.info,@
Rose Av & New Dorp Pz At   Corner,-74.11763619710403 ,40.573289477762195,http://www.mta.info,@
Lincoln Av & N Railroad Av At Sw Corner,-74.10909547420847 ,40.57944093363798,http://www.mta.info,@
Fremont Av & N Railroad Av At Sw Corner,-74.10974678432869 ,40.57905848401777,http://www.mta.info,@
Jefferson Av & N Railroad Av At Sw Corner,-74.1027923592224 ,40.58406245330849,http://www.mta.info,@
Seaview Av & Hancock St At Nw Corner,-74.09636903041522 ,40.58852075114477,http://www.mta.info,@
Seaview Av & N Railroad Av At Sw Corner,-74.09664097479104 ,40.58861597906009,http://www.mta.info,@
Seaview Av & Hancock St At Ne Corner,-74.09610963651922 ,40.588656005320914,http://www.mta.info,@
Oregon Rd & Old Town Rd At Nw Corner,-74.08756358797926 ,40.59608404650297,http://www.mta.info,@
Clove Rd & Hillcrest Te At Sw Corner,-74.08361004737709 ,40.60364672374814,http://www.mta.info,@
Bay St & Townsend Av At Ne Corner,-74.0716915978877 ,40.6215936958299,http://www.mta.info,@
Bay St & Cross St At Ne Corner,-74.07514057575537 ,40.62776347540416,http://www.mta.info,@
Minthorne St & Victory Bl At Se Corner,-74.07501783878428 ,40.637632590042834,http://www.mta.info,@
101 Church Avenue,-73.97933299978706 ,40.643215332764356,http://www.mta.info,F
134 India Street,-73.95475099806661 ,40.73221633405382,http://www.mta.info,G
1173 50 Street,-73.9949950002359 ,40.63603033347818,http://www.mta.info,D
67-05 Fresh Pond Road,-73.8962320513599 ,40.70595495446358,http://www.mta.info,M
1725 Broadway,-73.9110630008389 ,40.68346733449649,http://www.mta.info,J-Z
125 East 77 Street (Downtown Only),-73.95995400102264 ,40.77377933383242,http://www.mta.info,4-6-6 Express
849a East 149 Street (To Manhattan Only),-73.90412800151032 ,40.81236633150729,http://www.mta.info,6
45 Court Street,-73.99030083105937 ,40.692307636364816,http://www.mta.info,2-3-4-5-N-R
136-32 Roosevelt Avenue,-73.82859999952892 ,40.75985133422084,http://www.mta.info,7-7 Express
10-51 Wyckoff Avenue (To Manhattan Only),-73.90297408232357 ,40.69515414286106,http://www.mta.info,L
201 East 188 Street,-73.89735200147229 ,40.86134533151059,http://www.mta.info,B-D
1100 6 Avenue,-73.98365700147019 ,40.75483233367388,http://www.mta.info,7-7 Express-B-D-F-M
1 Madison Avenue (Enter On E 23 St) (Downtown Only),-73.98645200055947 ,40.74041933190063,http://www.mta.info,4-6-6 Express
41-41 Crescent Street,-73.93967100141067 ,40.75083533377491,http://www.mta.info,7-7 Express-N-Q
973 8 Avenue,-73.98297099869396 ,40.76694333264791,http://www.mta.info,1-2-A-C-B-D
265 Broadway (To Manhattan Only),-73.95898896795964 ,40.708913895008564,http://www.mta.info,J-M-Z
1654 77 Street,-74.00062923052792 ,40.614166705406376,http://www.mta.info,D
233 Livonia Avenue,-73.90910200089908 ,40.66271233261046,http://www.mta.info,3-4
1611 St Nicholas Avenue,-73.9296060005938 ,40.855382332603874,http://www.mta.info,1
1673 79 Street,-74.00098399880791 ,40.61282333308499,http://www.mta.info,D
1081 6 Avenue,-73.98462700091271 ,40.754849333879854,http://www.mta.info,7-7 Express-B-D-F-M
390 6 Avenue,-73.99961499977677 ,40.73325933189584,http://www.mta.info,A-C-E-B-D-F-M
741 St Nicholas Avenue,-73.94388700180485 ,40.825542333582966,http://www.mta.info,A-C-B-D
4761 Broadway,-73.92717199991742 ,40.86574433371373,http://www.mta.info,A
344 Graham Avenue (To Manhattan Only),-73.94427100020707 ,40.71468733301527,http://www.mta.info,L
69 East 98 Street,-73.92284199925085 ,40.66514733492898,http://www.mta.info,3-4
1518 Cortelyou Road,-73.96396799872672 ,40.64127933425659,http://www.mta.info,B-Q
136-32 Roosevelt Avenue,-73.8288109992166 ,40.75979433447895,http://www.mta.info,7-7 Express
100 Ditmas Avenue,-73.9778499995546 ,40.635441333651535,http://www.mta.info,F
543 Metropolitan Avenue,-73.95085376336989 ,40.71419865862419,http://www.mta.info,G-L
96-02 Liberty Avenue,-73.84251200093959 ,40.68057333229845,http://www.mta.info,A-S
493 Clinton Avenue (To Manhattan Only),-73.96674715214536 ,40.683629192159906,http://www.mta.info,A-C
7514 4 Avenue,-74.02550719871913 ,40.63030318735973,http://www.mta.info,R
51 East 42 Street,-73.97848700133949 ,40.75271733258587,http://www.mta.info,4-5-6-6 Express-7-7 Express-S
3001 Foster Avenue (Enter (To Manhattan Only),-73.94819699813512 ,40.639887333890115,http://www.mta.info,2-5
Liberty St (Between 80 St And 81 St),-73.85771599898872 ,40.67959433308116,http://www.mta.info,A-S
1663 Atlantic Avenue,-73.93216023924523 ,40.67925588336398,http://www.mta.info,A-C
31 East 53 Street,-73.97385799979625 ,40.759721332772656,http://www.mta.info,E-M
1280 Fulton Street (To Queens Only),-73.9493908695775 ,40.68024500477771,http://www.mta.info,A-C
108-70 Roosevelt Avenue,-73.85590099873104 ,40.75140933180388,http://www.mta.info,7
59-02 92 Street,-73.86950699814543 ,40.73360233237716,http://www.mta.info,E-M-R
204 Broadway,-74.00863199974935 ,40.71055533312498,http://www.mta.info,2-3-4-5-A-C-J-Z
551 Driggs Avenue,-73.9561759996371 ,40.71702233421327,http://www.mta.info,L
131 East 60 Street,-73.96781557906596 ,40.76302008477026,http://www.mta.info,4-5-6-6 Express-N-Q-R
819 8 Avenue,-73.97887299904411 ,40.66576033265376,http://www.mta.info,F
5 Av (Between E 60 St And E 61 St),-73.97246699880432 ,40.76531333443158,http://www.mta.info,N-Q-R
102 Brighton Beach Avenue,-73.96767999977118 ,40.576161332887885,http://www.mta.info,B-Q
85 Cedar Street,-73.92651300122004 ,40.69785533254348,http://www.mta.info,M
3001 Church Avenue (To Manhattan Only),-73.94942400161808 ,40.650949332703036,http://www.mta.info,2-5
2042 Amsterdam Avenue (Downtown Only),-73.94013700110527 ,40.83593633401116,http://www.mta.info,A-C
815 8 Avenue (Downtown Only),-73.98666199958981 ,40.7619683341239,http://www.mta.info,A-C-E
235 Bushwick Avenue,-73.93968199980638 ,40.70778733407728,http://www.mta.info,L
441 7 Avenue,-73.9903230003753 ,40.75102033385896,http://www.mta.info,1-2-3
35 Hoyt Street,-73.98594100184945 ,40.689085331562936,http://www.mta.info,A-C-G
3001 Avenue H,-73.94731835815526 ,40.631735387603364,http://www.mta.info,2-5
179-36 Hillside Avenue,-73.78303299734942 ,40.712683334095836,http://www.mta.info,F
1548 Bay Ridge Avenue,-73.99848999861335 ,40.620293332581795,http://www.mta.info,D
Intersection Of Harrison Place And Bogart Street,-73.93366583700684 ,40.70607378609539,http://www.mta.info,L
37 East 32 Street (Downtown Only),-73.98214699937085 ,40.7464473337695,http://www.mta.info,4-6-6 Express
45 Court Street,-73.9906542983563 ,40.69238284441714,http://www.mta.info,2-3-4-5-N-R
126 Fulton Street,-74.00802200013175 ,40.710241332985746,http://www.mta.info,2-3-4-5-A-C-J-Z
1550 71 Street,-73.99924100057758 ,40.618935332176406,http://www.mta.info,D
138 East 68 Street,-73.96394999909225 ,40.767681334741276,http://www.mta.info,4-6-6 Express
104-02 116 Street,-73.82692799849977 ,40.685678332264686,http://www.mta.info,A-S
392 7 Avenue,-73.99172149654179 ,40.74979037351276,http://www.mta.info,1-2-3
69 John Street,-74.00699899953611 ,40.70863033416671,http://www.mta.info,2-3-4-5-A-C-J-Z
92-17 Jamaica Avenue,-73.85259500021589 ,40.69366333396151,http://www.mta.info,J-Z
23 Avenue I,-73.9765236040468 ,40.626082015825645,http://www.mta.info,F
1261 6 Avenue,-73.98021846669654 ,40.76050264250637,http://www.mta.info,B-D-F-M
82-55 Broadway,-73.88098500097031 ,40.742069210837684,http://www.mta.info,E-M-R
1605 Palmetto Street,-73.91099904743731 ,40.69980717952472,http://www.mta.info,L-M
168-02 Hillside Avenue,-73.79455299714931 ,40.7098803344189,http://www.mta.info,F
4405 New Utrecht Avenue,-73.99415800081732 ,40.64038433232545,http://www.mta.info,D
189 Broadway,-74.0096649981071 ,40.710418334007585,http://www.mta.info,2-3-4-5-A-C-J-Z
280 Park Avenue South (Downtown Only),-73.9871340012945 ,40.739501332334406,http://www.mta.info,4-6-6 Express
30 Rockefeller Plaza,-73.98059400174726 ,40.75930133181267,http://www.mta.info,B-D-F-M
764 5 Avenue,-73.97422800033715 ,40.76459933229127,http://www.mta.info,N-Q-R
463 Bergen Street (To New Lots And Flatbush Only),-73.97549800103558 ,40.681045332400714,http://www.mta.info,2-3-4
299 Broadway (To Manhattan Only),-73.95772000127828 ,40.70850533293423,http://www.mta.info,J-M-Z
137 East 52 Street,-73.97109799934562 ,40.75781133347116,http://www.mta.info,4-6-6 Express-E-M
33 East 42 Street,-73.97891700058061 ,40.75283033297876,http://www.mta.info,4-5-6-6 Express-7-7 Express-S
902 6 Avenue,-73.98751141546286 ,40.74982821995351,http://www.mta.info,B-D-F-M-N-Q-R
326 7 Avenue,-73.98166499913712 ,40.667113333714504,http://www.mta.info,F
11 East 42 Street,-73.97953700074578 ,40.75308733406361,http://www.mta.info,4-5-6-6 Express-7-7 Express-S
1561 Broadway,-73.91571990256669 ,40.68605442847009,http://www.mta.info,J
6908 New Utrecht Avenue,-73.99880299778562 ,40.620370333405994,http://www.mta.info,D
1231 Nostrand Avenue (To Manhattan Only),-73.95001299898722 ,40.657197333787394,http://www.mta.info,2-5
78 Clinton Street,-73.99262239451667 ,40.69422222150884,http://www.mta.info,2-3-4-5-N-R
361 Classon Avenue,-73.95980936376556 ,40.688785308641535,http://www.mta.info,G
2 Hemlock Street,-73.87332899778279 ,40.6894543323519,http://www.mta.info,J
1029 Mc Donald Avenue,-73.9764634107847 ,40.628665645967224,http://www.mta.info,F
300 Broadway,-73.95813500057452 ,40.708351334062016,http://www.mta.info,J-M-Z
1039 44 Street,-73.9944700007551 ,40.641170333195475,http://www.mta.info,D
1260 6 Avenue,-73.980116998195 ,40.75995333367643,http://www.mta.info,B-D-F-M
10-34 Wyckoff Avenue (To Canarsie Only),-73.90379291464397 ,40.69521419500621,http://www.mta.info,L
4 Ave (Between 35 St And 36 St),-74.0041750007344 ,40.65430133362265,http://www.mta.info,D-N-R
628 Manhattan Avenue,-73.95071700136782 ,40.723905333723025,http://www.mta.info,G
6th Ave & 35th St At Se Corner,-73.98713699847181 ,40.750329334509175,http://www.mta.info,B-D-F-M-N-Q-R
6th Ave & 35th St At Ne Corner,-73.98699100022516 ,40.7504193316281,http://www.mta.info,B-D-F-M-N-Q-R
7th Ave & 40th St At Sw Corner,-73.98806699936645 ,40.75469133379396,http://www.mta.info,1-2-3-7-7 Express-S-A-C-E-N-Q-R
Broadway & 40th St At Se Corner,-73.98668000194873 ,40.75417233397797,http://www.mta.info,1-2-3-7-7 Express-S-A-C-E-N-Q-R
6th Ave & 40th St At Sw Corner,-73.98525900036029 ,40.75347333226498,http://www.mta.info,7-7 Express-B-D-F-M
South St & Whitehall St At Ne Corner,-74.01258800208448 ,40.70193833315446,http://www.mta.info,N-R
State St & Whitehall St At   Corner,-74.01308100010944 ,40.702126333636976,http://www.mta.info,N-R
Broadway & Battery Pl At Nw Corner,-74.01445400087002 ,40.70479533317614,http://www.mta.info,4-5
Stone St & Whitehall St At Nw Corner,-74.01329300127335 ,40.70409633497571,http://www.mta.info,N-R
Water St & Whitehall St At Se Corner,-74.01263199901294 ,40.70209233207648,http://www.mta.info,N-R
Broad St & Exchange Pl At Sw Corner,-74.01147399985578 ,40.70602033271579,http://www.mta.info,J-Z
Greenwich St & Morris St At Ne Corner (Uptown Only),-74.01408490539114 ,40.70666157924534,http://www.mta.info,1
Trinity Pl & Exchange Alley At Nw Corner (Downtown Only),-74.01342599883253 ,40.70730633188052,http://www.mta.info,N-R
Trinity Pl & Rector St At Nw Corner (Downtown Only),-74.01296799970602 ,40.70790933264975,http://www.mta.info,N-R
Trinity Pl & Rector St At Ne Corner (Uptown Only),-74.01277399830795 ,40.70790233248656,http://www.mta.info,N-R
Greenwich St & Rector St At Ne Corner (Uptown Only),-74.01344499793386 ,40.708107333579505,http://www.mta.info,1
Broadway & Rector St At Nw Corner,-74.01185431430876 ,40.70767114919515,http://www.mta.info,4-5
Broadway & Rector St At Sw Corner,-74.01206700045852 ,40.70742833335814,http://www.mta.info,4-5
Broadway & Wall St At Se Corner,-74.01173100104243 ,40.70757733148036,http://www.mta.info,4-5
Broad St & Wall St At Sw Corner,-74.01088200163512 ,40.70701233458285,http://www.mta.info,J-Z
Broad St & Wall St At Sw Corner,-74.01080200026577 ,40.707108335005124,http://www.mta.info,J-Z
Church St & Dey St At Ne Corner (Uptown Only),-74.01076700096843 ,40.71087133451745,http://www.mta.info,N-R
West Broadway & Vesey St At Se Corner,-74.01182500226878 ,40.71255033234768,http://www.mta.info,1
Nassau St & Cedar St At Se Corner,-74.00981445348484 ,40.708027273846106,http://www.mta.info,J-Z
William St & Wall St At Ne Corner,-74.00933199836655 ,40.706392332582794,http://www.mta.info,2-3
John St & Nassau St At Ne Corner,-74.00829499818661 ,40.70950733386628,http://www.mta.info,2-3-4-5-A-C-J-Z
William St & Fulton St At Sw Corner,-74.00659100088242 ,40.70957033231289,http://www.mta.info,2-3-4-5-A-C-J-Z
Church St & Vesey St At Se Corner,-74.01016500044878 ,40.71179333182713,http://www.mta.info,2-3-A-C-E
Broadway & Dey St At Nw Corner,-74.00949300012229 ,40.710555334553305,http://www.mta.info,2-3-4-5-A-C-J-Z
Broadway & Fulton St At Nw Corner,-74.00921900128778 ,40.71103833350952,http://www.mta.info,2-3-4-5-A-C-J-Z
Church St & Barclay St At Sw Corner,-74.00989100085603 ,40.71268133391917,http://www.mta.info,2-3-A-C-E
Church St & Park Pl At Nw Corner,-74.00929199951004 ,40.713435333613205,http://www.mta.info,2-3-A-C-E
Church St & Murray St At Sw Corner,-74.009046000701 ,40.7137533338483,http://www.mta.info,2-3-A-C-E
7th Ave & 12th St At Nw Corner,-74.00081499957507 ,40.73738833397649,http://www.mta.info,1-2-3-L-F-M
7th Ave & 13th St At Ne Corner,-73.99992999944617 ,40.737846334072856,http://www.mta.info,1-2-3-L-F-M
7th Ave & 14th St At Nw Corner,-73.99971099759154 ,40.738775333605766,http://www.mta.info,1-2-3-L-F-M
1276 Fulton Street (To Queens Only),-73.94970701284203 ,40.680285257847636,http://www.mta.info,A-C
2152 Fulton Street,-73.91088900152428 ,40.678140333745255,http://www.mta.info,A-C
770 Livonia Avenue,-73.88834499880544 ,40.66547633378573,http://www.mta.info,3-4
40-01 111 Street,-73.85566199723063 ,40.75148333299212,http://www.mta.info,7
111 East 50 Street,-73.9724399858864 ,40.75669168464179,http://www.mta.info,4-6-6 Express-E-M
300 7 Avenue (Downtown Only),-73.99395500089797 ,40.7467873326547,http://www.mta.info,1-2
109-04 Liberty Avenue,-73.83270199762214 ,40.6839603334025,http://www.mta.info,A-S
101 Brighton Beach Avenue,-73.9679379987272 ,40.57647633325409,http://www.mta.info,B-Q
Bethel Av & St Andrew's Pl At Nw Corner,-74.23890290905244 ,40.517614987092955,http://www.mta.info,@
Richmond Valley Rd & Amboy Rd At Ne Corner,-74.22952189507994 ,40.51951069496647,http://www.mta.info,@
Amboy Rd & Station Av At Sw Corner,-74.2166168955296 ,40.52279555247251,http://www.mta.info,@
Seguine Av & Waterbury Av At Se Corner,-74.20081488231371 ,40.52535310637307,http://www.mta.info,@
E Tenafly Av & S Railroad St At Nw Corner,-74.17870202847573 ,40.54023871620265,http://www.mta.info,@
Giffords La & Baltimore St At Sw Corner,-74.15064001792413 ,40.55160027705963,http://www.mta.info,@
Huguenot Av & West Te At Se Corner,-74.1923129745576 ,40.53320361744727,http://www.mta.info,@
Justin Av & S Railroad Av At Nw Corner,-74.13629802224524 ,40.556853663622874,http://www.mta.info,@
Cedarview Av & N Railroad Av At Se Corner,-74.12629559146829 ,40.56533753111365,http://www.mta.info,@
New Dorp La & New Dorp Pz At   Corner,-74.11662824601991 ,40.57395637796498,http://www.mta.info,@
Fremont Av & S Railroad Av At Nw Corner,-74.10957556566589 ,40.57892477484412,http://www.mta.info,@
Jefferson Av & S Railroad Av At Nw Corner,-74.10268690233093 ,40.58399735863658,http://www.mta.info,@
Garretson Av & Hancock St At Nw Corner,-74.09566269058713 ,40.58898116458699,http://www.mta.info,@
N Railroad Av & Old Town Rd At Ne Corner,-74.08783392950232 ,40.5961094485062,http://www.mta.info,@
Bay St & Norwood Av At Se Corner,-74.07188129631724 ,40.62183338419153,http://www.mta.info,@
Bay St & Hannah St At Ne Corner,-74.0747211792282 ,40.63631038846453,http://www.mta.info,@
146-18 Hillside Avenue,-73.80978399821085 ,40.70556533203404,http://www.mta.info,F
39-23 103 Street,-73.86254800053098 ,40.75005833512075,http://www.mta.info,7
625 Livonia Avenue,-73.89389199781535 ,40.66491533343512,http://www.mta.info,3-4
2843 Church Avenue (To Flatbush Only),-73.94977600173388 ,40.650931332968476,http://www.mta.info,2-5
574 Lorimer Street,-73.94927499880818 ,40.71420733425892,http://www.mta.info,G-L
158 Greenpoint Avenue,-73.95408700003344 ,40.730101333488065,http://www.mta.info,G
36 Lawrence Avenue (Enter From Parkville Av),-73.9769970377028 ,40.62847604552346,http://www.mta.info,F
51 Clark Street,-73.99315800106413 ,40.69757933308848,http://www.mta.info,2-3
969 62 Street (Enter From Ft Hamilton Py),-74.00658000170236 ,40.63218633191453,http://www.mta.info,N
1623 De Kalb Avenue,-73.9191940005868 ,40.70448133467956,http://www.mta.info,L
949 8 Avenue,-73.98316500059238 ,40.766662332625025,http://www.mta.info,1-2-A-C-B-D
884 3 Avenue (Enter On E 53 St),-73.97050299898277 ,40.75831733192591,http://www.mta.info,4-6-6 Express-E-M
107-31 71 Avenue,-73.84439445425849 ,40.721278312214814,http://www.mta.info,E-F-M-R
Intersection Of Parsons Block And Archer Avenue,-73.79992999923785 ,40.70235833370197,http://www.mta.info,E-J-Z
40-02 Junction Boulevard,-73.86948899694767 ,40.74900633334262,http://www.mta.info,7-7 Express
Staten Island Ferry Terminal,-74.07326996710215 ,40.644263529696424,http://www.mta.info,@
3069 Brighton 7 Street,-73.96048399944962 ,40.577975333108924,http://www.mta.info,B-Q
6003 4 Avenue,-74.01841199984315 ,40.640590333445076,http://www.mta.info,N-R
1340 Greene Avenue,-73.91858400115018 ,40.698690331983364,http://www.mta.info,M
1 Federal Reserve Plaza,-74.00837499845683 ,40.70937633401403,http://www.mta.info,2-3-4-5-A-C-J-Z
7 Bentley Street,-74.25283251834045 ,40.512114043239755,http://www.mta.info,@
368 Jay Street,-73.9874326178703 ,40.69303973508592,http://www.mta.info,A-C-F
179-30 Hillside Avenue,-73.78319199917817 ,40.71264633504773,http://www.mta.info,F
1605 Palmetto Street,-73.9112954589298 ,40.69981445692808,http://www.mta.info,L-M
1506 Avenue J,-73.9610483820012 ,40.62499993983951,http://www.mta.info,B-Q
240 Canal Street,-74.00031000052581 ,40.71790533478803,http://www.mta.info,4-6-6 Express-J-Z-N-Q-R
242 West 34 Street,-73.99127100062776 ,40.75104633433594,http://www.mta.info,1-2-3
2914 Beverly Road (To Flatbush Only),-73.94911499944708 ,40.64501033468434,http://www.mta.info,2-5
586 Lafayette Avenue,-73.95160605793193 ,40.68968470054134,http://www.mta.info,G
38-23 69 Street,-73.8961980007589 ,40.74652133432762,http://www.mta.info,7
101 East 41 Street,-73.97719700095637 ,40.75172133361591,http://www.mta.info,4-5-6-6 Express-7-7 Express-S
657 Carlton Avenue,-73.972240619546 ,40.67732312082192,http://www.mta.info,B-Q
137 East 42 Street,-73.97540900157077 ,40.75134533337079,http://www.mta.info,4-5-6-6 Express-7-7 Express-S
824 7 Avenue,-73.98252764146366 ,40.763409064683,http://www.mta.info,B-D-E
462 Flatbush Avenue,-73.96228475951067 ,40.66248281788015,http://www.mta.info,B-Q-S
1030 Longwood Avenue (To Pelham Bay Pk Only),-73.89618000153308 ,40.816118332373165,http://www.mta.info,6
125 East 86 Street (Downtown Only),-73.95561100089436 ,40.77972533285194,http://www.mta.info,4-5-6-6 Express
3327 Fulton Street,-73.87284699944519 ,40.68358633323693,http://www.mta.info,J-Z
4941 Broadway,-73.92116800075061 ,40.867965332125884,http://www.mta.info,A
700 Pelham Parkway South,-73.86737744464142 ,40.85641511143711,http://www.mta.info,2-5
93-18 Liberty Avenue,-73.84507999728919 ,40.6801223334983,http://www.mta.info,A-S
692 Parkside Avenue (To Flatbush Only),-73.9503499980701 ,40.65614933330515,http://www.mta.info,2-5
1842 Nostrand Avenue (To Flatbush Only),-73.94864900075727 ,40.64074533444978,http://www.mta.info,2-5
25-04 Brookhaven Avenue,-73.76159667166301 ,40.599541299768994,http://www.mta.info,A
902 8 Avenue,-73.97949100103148 ,40.665677332876015,http://www.mta.info,F
75-06 Jamaica Avenue,-73.86620399824056 ,40.69135233221147,http://www.mta.info,J-Z
9-91 Wyckoff Avenue (To Manhattan Only),-73.9046593256975 ,40.69609050548213,http://www.mta.info,L
1289 Fulton Street (To Manhattan Only),-73.9497489785255 ,40.68054202712837,http://www.mta.info,A-C
40-15 75 Street,-73.89025400151733 ,40.74637633345293,http://www.mta.info,7-E-F-M-R
250 Brook Avenue (To Manhattan Only),-73.91895100201356 ,40.8076073345361,http://www.mta.info,6
4910 New Utrecht Avenue,-73.99494800092094 ,40.636393331545776,http://www.mta.info,D
7102 16 Avenue,-73.9989360003478 ,40.618768334628484,http://www.mta.info,D
170 Marcy Avenue (To Manhattan Only),-73.95794666386148 ,40.70871520466576,http://www.mta.info,J-M-Z
103 8 Avenue,-74.00191899881433 ,40.74093833261847,http://www.mta.info,A-C-E-L
957 Fulton Street (To Manhattan Only),-73.96462888538127 ,40.68324343549189,http://www.mta.info,A-C
2222 Pitkin Avenue,-73.89038600125902 ,40.67250133276612,http://www.mta.info,A-C
42-01 28 Street,-73.93847099895672 ,40.748705334056005,http://www.mta.info,E-M-R
2084 Fulton Street,-73.9136679987889 ,40.67827933489621,http://www.mta.info,A-C
104 Van Siclen Avenue,-73.89173000024194 ,40.67775633378299,http://www.mta.info,J-Z
101 East 41 Street,-73.97738200011247 ,40.75164733324878,http://www.mta.info,4-5-6-6 Express-7-7 Express-S
116 Delancey Street,-73.9878905453964 ,40.71883643398933,http://www.mta.info,F-J-M-Z
1331 Broadway,-73.98793491402157 ,40.750879655203,http://www.mta.info,B-D-F-M-N-Q-R
956 Mc Donald Avenue,-73.9773402282988 ,40.63041836263885,http://www.mta.info,F
107 East 42 Street,-73.97608700109079 ,40.75170133258575,http://www.mta.info,4-5-6-6 Express-7-7 Express-S
28 East 53 Street,-73.97406799983081 ,40.75955633321037,http://www.mta.info,E-M
128 William Street,-74.0066639981552 ,40.709200333605786,http://www.mta.info,2-3-4-5-A-C-J-Z
1713 Church Avenue,-73.96351254183406 ,40.64940044181399,http://www.mta.info,B-Q
53-02 Roosevelt Avenue,-73.91138160414198 ,40.74433028093164,http://www.mta.info,7
1518 Avenue H,-73.96147689037281 ,40.62993006773505,http://www.mta.info,B-Q
1551 71 Street,-73.99917800078191 ,40.61919733357021,http://www.mta.info,D
214 Cleveland Street,-73.88571000042222 ,40.67969833289972,http://www.mta.info,J
111-37 75 Avenue (To Jamaica Only),-73.83825706369385 ,40.71857406952072,http://www.mta.info,E-F
3000 Church Avenue (To Manhattan Only),-73.94925085958684 ,40.65051870059541,http://www.mta.info,2-5
183 Bedford Avenue,-73.95757699758609 ,40.717856333905885,http://www.mta.info,L
623 Manhattan Avenue,-73.95085799853584 ,40.72366133309165,http://www.mta.info,G
95 Bushwick Avenue (To Manhattan Only),-73.94057800035323 ,40.712130334662945,http://www.mta.info,L
43 East 41 Street,-73.97839599921824 ,40.75221833461827,http://www.mta.info,4-5-6-6 Express-7-7 Express-S
815 8 Avenue (Downtown Only),-73.98637836775382 ,40.762311923632964,http://www.mta.info,A-C-E
441 7 Avenue (Corner Of Broadway And W 35 St),-73.98798744165815 ,40.750623091893644,http://www.mta.info,B-D-F-M-N-Q-R
7 Times Square,-73.98687499839882 ,40.755747332603825,http://www.mta.info,1-2-3-7-7 Express-S-A-C-E-N-Q-R
378 6 Avenue,-73.99972781604956 ,40.7330668675019,http://www.mta.info,A-C-E-B-D-F-M
93-01 Sutphin Boulevard,-73.8073850000893 ,40.70054133354553,http://www.mta.info,E-J-Z
1 Boerum Street,-73.95005856270492 ,40.70558219745896,http://www.mta.info,G
41-31 53 Street,-73.91130160433866 ,40.74462428113708,http://www.mta.info,7
81-20 Roosevelt Avenue,-73.88400200050775 ,40.74745733382506,http://www.mta.info,7
401 7 Avenue,-73.99081999920062 ,40.75007733143072,http://www.mta.info,1-2-3
275 Kings Highway,-73.9804247905855 ,40.60533892568755,http://www.mta.info,N
302 Broadway (To Queens And Canarsie Only),-73.95786899948934 ,40.70823133485218,http://www.mta.info,J-M-Z
1 Greene Avenue (To Manhattan Only),-73.97327999944173 ,40.68607833348161,http://www.mta.info,A-C
368 Jay Street,-73.98751302340989 ,40.692399883169706,http://www.mta.info,A-C-F
105-02 86 Street,-73.85263391596403 ,40.67963411234011,http://www.mta.info,A-S
394 Broadway,-73.95437099980298 ,40.707074332348185,http://www.mta.info,J-M
88-01 180 Street,-73.78246100116253 ,40.712827334058225,http://www.mta.info,F
2848 Church Avenue (To Flatbush Only),-73.94972099986038 ,40.650663332732016,http://www.mta.info,2-5
88-04 Liberty Avenue,-73.85039198723305 ,40.67973993397663,http://www.mta.info,A-S
118-16 Liberty Avenue,-73.8244029993191 ,40.68602833335291,http://www.mta.info,A-S
624 Livonia Avenue,-73.89419699964245 ,40.66460033199698,http://www.mta.info,3-4
632 Ashford Street,-73.88335199766456 ,40.66647233299098,http://www.mta.info,3-4
47 East 22 Street (Downtown Only),-73.98703999940777 ,40.73967433213274,http://www.mta.info,4-6-6 Express
38-10 Junction Boulevard,-73.86964799787232 ,40.74928233396145,http://www.mta.info,7-7 Express
40-02 75 Street,-73.89071276296231 ,40.74680016874329,http://www.mta.info,7-E-F-M-R
9 Kew Gardens Road,-73.83005548760832 ,40.71363928846928,http://www.mta.info,E-F
48-02 Broadway (To Jamaica Only),-73.91262199952348 ,40.755795331901204,http://www.mta.info,E-M-R
40-01 Junction Boulevard,-73.8691700000405 ,40.74905733409315,http://www.mta.info,7-7 Express
1282 Broadway,-73.98767191771799 ,40.74959568318319,http://www.mta.info,B-D-F-M-N-Q-R
469 Bergen Street (To Manhattan Only),-73.97496600132918 ,40.68094333446013,http://www.mta.info,2-3-4
742 7 Avenue (Downtown Only),-73.9838759989991 ,40.76060533401482,http://www.mta.info,N-Q-R
54-00 Myrtle Avenue,-73.91064750558407 ,40.69946850977898,http://www.mta.info,L-M
1492 Fulton Street (To Queens Only),-73.94109549522655 ,40.67976973746395,http://www.mta.info,A-C
52 East 32 Street (Downtown Only),-73.98257600173673 ,40.74582133324491,http://www.mta.info,4-6-6 Express
3180 Broadway,-73.95839699972939 ,40.81514933403753,http://www.mta.info,1
69 John Street,-74.00681399932654 ,40.70904633336788,http://www.mta.info,2-3-4-5-A-C-J-Z
1512 Beverly Road,-73.9645369989862 ,40.64425733321383,http://www.mta.info,B-Q
1772 Broadway,-73.90993799836245 ,40.68238833420657,http://www.mta.info,J-Z
2059 Fulton Street,-73.91072300016843 ,40.678420333711,http://www.mta.info,A-C
34-02 Steinway Street,-73.92108399848057 ,40.756614331856866,http://www.mta.info,E-M-R
Oxford St & Fulton Ave At Ne Corner (To Manhattan Only),-73.972769000658 ,40.68579233243041,http://www.mta.info,A-C
Nostrand Ave & Flatbush Ave At Ne Corner,-73.94738940927256 ,40.63276214063685,http://www.mta.info,2-5
Nostrand Ave & Flatbush Ave At Nw Corner,-73.94781900155724 ,40.63326933523012,http://www.mta.info,2-5
Nostrand Ave & Flatbush Ave At Se Corner,-73.94749899876723 ,40.63246533340782,http://www.mta.info,2-5
Nostrand Ave & Newkirk Ave At Sw Corner (To Flatbush Only),-73.94857999762507 ,40.639881332624995,http://www.mta.info,2-5
Nostrand Ave & Church Ave At Nw Corner (To Flatbush Only),-73.94972900147569 ,40.65105033390742,http://www.mta.info,2-5
Nostrand Ave & Sterling St At Nw Corner,-73.95104899998172 ,40.66327933394842,http://www.mta.info,2-5
Nostrand Ave & President St At Nw Corner,-73.95083400072066 ,40.668170332564735,http://www.mta.info,2-5
Nostrand Ave & Eastern Pkwy At Sw Corner,-73.95067000101196 ,40.66981633284575,http://www.mta.info,3-4
Kingston Ave & Eastern Pkwy At Sw Corner,-73.94234699920897 ,40.66937133331964,http://www.mta.info,3-4
Kingston Ave & Eastern Pkwy At Se Corner,-73.94207299834666 ,40.66935933265661,http://www.mta.info,3-4
Schenectady Ave & Eastern Pkwy At Se Corner,-73.93378900106408 ,40.66881333251768,http://www.mta.info,3-4
Utica Ave & Eastern Pkwy At Sw Corner,-73.9313560003309 ,40.66870433303468,http://www.mta.info,3-4
Utica Ave & Eastern Pkwy At Nw Corner,-73.93137199986847 ,40.6689133334026,http://www.mta.info,3-4
Utica Ave & Eastern Pkwy At Nw Corner,-73.93118704262383 ,40.66890321280809,http://www.mta.info,3-4
Patchen Ave & Broadway At Sw Corner,-73.9279029458893 ,40.69299540765309,http://www.mta.info,J
Patchen Ave & Broadway At Ne Corner,-73.92814326380166 ,40.69280291851368,http://www.mta.info,J
Union Ave & Flushing Ave At Sw Corner (To Downtown Brooklyn Only),-73.95025995937118 ,40.69968456491138,http://www.mta.info,G
Hooper St & Broadway At Nw Corner,-73.95430100044805 ,40.70727133426146,http://www.mta.info,J-M
Hewes St & Broadway At Se Corner,-73.95243099996533 ,40.70641833230997,http://www.mta.info,J-M
Union Ave & Metropolitan Ave At Ne Corner,-73.9517500008814 ,40.713768333482406,http://www.mta.info,G-L
Union Ave & Metropolitan Ave At Sw Corner,-73.95171900019918 ,40.71392933371935,http://www.mta.info,G-L
Moore St & Broadway At Sw Corner,-73.94826800098589 ,40.70419533320091,http://www.mta.info,J-M
Moore St & Broadway At Nw Corner,-73.94812699958229 ,40.704397333681385,http://www.mta.info,J-M
Lorimer St & Broadway At Nw Corner,-73.94654699826157 ,40.70351533275654,http://www.mta.info,J-M
Flushing Ave & Broadway At Nw Corner,-73.94168099923095 ,40.70084433238409,http://www.mta.info,J-M
Manhattan Ave & Greenpoint Ave At Sw Corner,-73.95438500013982 ,40.73007833317049,http://www.mta.info,G
Manhattan Ave & Norman Ave At Ne Corner,-73.95164800116704 ,40.72555633329307,http://www.mta.info,G
Graham Ave & Metropolitan Ave At Nw Corner (To Canarsie Only),-73.94449799771087 ,40.714425334474996,http://www.mta.info,L
Graham Ave & Metropolitan Ave At Sw Corner (To Manhattan Only),-73.94456099908396 ,40.714616334149724,http://www.mta.info,L
Montrose Ave & Bushwick Ave At Sw Corner,-73.9400500007982 ,40.7077403330804,http://www.mta.info,L
Grand St & Bushwick Ave At Nw Corner (To Canarsie Only),-73.94075899707055 ,40.71182633302375,http://www.mta.info,L
Grand St & Bushwick Ave At Sw Corner (To Manhattan Only),-73.94043000108499 ,40.71190433372753,http://www.mta.info,L
Myrtle Ave & Cedar St At Nw Corner,-73.92636399890755 ,40.698063332506344,http://www.mta.info,M
Morgan Ave & Harrison Pl At Se Corner,-73.93167600027209 ,40.7063063336517,http://www.mta.info,L
Morgan Ave & Harrison Pl At Ne Corner,-73.93173899831964 ,40.70646033344432,http://www.mta.info,L
Rutland Rd & E. 98th St At Sw Corner,-73.92309299735516 ,40.664915332412825,http://www.mta.info,3-4
Saratoga Ave & Livonia Ave At Sw Corner,-73.9155489997896 ,40.66140733265271,http://www.mta.info,3-4
Saratoga Ave & Livonia Ave At Se Corner,-73.91531399894956 ,40.66152633181361,http://www.mta.info,3-4
Rockaway Ave & Livonia Ave At Se Corner,-73.90877300100111 ,40.662438332268465,http://www.mta.info,3-4
Powell St & Livonia Ave At Sw Corner,-73.9028120003089 ,40.66331533432275,http://www.mta.info,3-4
Powell St & Livonia Ave At Sw Corner,-73.90247499902411 ,40.66339833443063,http://www.mta.info,3-4
Ralph Ave & Mac Dougal St At Ne Corner,-73.9218702669548 ,40.6791638588344,http://www.mta.info,A-C
Ralph Ave & Fulton St At Ne Corner,-73.92144199892608 ,40.67898433374533,http://www.mta.info,A-C
Rockaway Ave & Fulton St At Nw Corner,-73.910970998439 ,40.67846033435985,http://www.mta.info,A-C
Palmetto St & Broadway At Nw Corner,-73.92142400035645 ,40.68930033373271,http://www.mta.info,J-Z
Jefferson Ave & Broadway At Se Corner,-73.91746700040021 ,40.68674233192847,http://www.mta.info,J
Linden St & Broadway At Sw Corner,-73.9230969998101 ,40.68995733221047,http://www.mta.info,J-Z
Weirfield St & Broadway At Se Corner,-73.91587267168624 ,40.68587485400629,http://www.mta.info,J
Chauncey St & Broadway At Ne Corner,-73.9097100006585 ,40.68266833381937,http://www.mta.info,J-Z
Snediker Ave & New York Ave At Sw Corner,-73.90267063642928 ,40.6756575986587,http://www.mta.info,L
Snediker Ave & New York Ave At Sw Corner,-73.90263499824577 ,40.67539433452073,http://www.mta.info,L
Georgia Av & Fulton St At Sw Corner,-73.89917999910512 ,40.67683433434105,http://www.mta.info,J
Pennsylvania Ave & Liberty Ave At Se Corner,-73.89629400139894 ,40.67428533228811,http://www.mta.info,A-C
Pennsylvania Ave & Liberty Ave At Ne Corner,-73.89633100094701 ,40.67456533297189,http://www.mta.info,A-C
Van Siclen Ave & Livonia Ave At Nw Corner,-73.88862600099708 ,40.665708334878964,http://www.mta.info,3-4
Van Siclen Ave & Pitkin Ave At Nw Corner,-73.8904599976744 ,40.672878332993186,http://www.mta.info,A-C
Van Siclen Ave & Pitkin Ave At Ne Corner,-73.89025000073877 ,40.672867332287005,http://www.mta.info,A-C
Shepherd Ave & Pitkin Ave At Nw Corner,-73.88086800149132 ,40.6739613318839,http://www.mta.info,A-C
Shepherd Ave & Pitkin Ave At Sw Corner,-73.88093500010113 ,40.67426433459513,http://www.mta.info,A-C
Shepherd Ave & Pitkin Ave At Ne Corner,-73.88074699927924 ,40.67429333239832,http://www.mta.info,A-C
Norwood Ave & Fulton St At Ne Corner,-73.87900900077503 ,40.68180633462614,http://www.mta.info,J-Z
Euclid Ave & Pitkin Ave At Se Corner,-73.87178199877187 ,40.67526233344681,http://www.mta.info,A-C-S
Euclid Ave & Pitkin Ave At Ne Corner,-73.87175799962793 ,40.6755303345872,http://www.mta.info,A-C-S
Pine St & Fulton St At Se Corner,-73.87276999821525 ,40.68340733274574,http://www.mta.info,J-Z
Myrtle Ave & Greene Ave At Se Corner,-73.91870899934953 ,40.69891033479914,http://www.mta.info,M
Dekalb Ave & Wycoff Ave At Sw Corner,-73.91945199898278 ,40.70432633395424,http://www.mta.info,L
Dekalb Ave & Wycoff Ave At Ne Corner,-73.9190449986157 ,40.70439133242862,http://www.mta.info,L
Stanhope St & Wycoff Ave At Se Corner,-73.91773199850307 ,40.7032593328845,http://www.mta.info,L
Stanhope St & Wycoff Ave At Nw Corner,-73.91774699928287 ,40.70355033259118,http://www.mta.info,L
Jefferson St & Wyckoff Ave At Sw Corner,-73.92391099985265 ,40.70711133330767,http://www.mta.info,L
Starr St & Wyckoff Ave At Sw Corner,-73.922298999122 ,40.70604933284561,http://www.mta.info,L
Starr St & Wyckoff Ave At Nw Corner,-73.92206399914858 ,40.70630533281663,http://www.mta.info,L
Forest Ave & Myrtle Ave At Sw Corner,-73.90220899839154 ,40.70450033346103,http://www.mta.info,M
Fulton St & Van Sinderen Ave At Sw Corner,-73.90381712839364 ,40.67842957073362,http://www.mta.info,A-C-J-Z-L
De Sales Pl & Bushwick Ave At Nw Corner,-73.9050592498913 ,40.68225204311525,http://www.mta.info,L
Elmhurst Ave & Broadway At Se Corner,-73.88106400034353 ,40.74171133215067,http://www.mta.info,E-M-R
Main St & Roosevelt Ave At Ne Corner,-73.82868057346583 ,40.76001463271884,http://www.mta.info,7-7 Express
126th St & Roosevelt Ave At Nw Corner,-73.84537621006811 ,40.75488107639859,http://www.mta.info,7-7 Express
126th St & Roosevelt Ave At Nw Corner,-73.84620114695694 ,40.754720942372614,http://www.mta.info,7-7 Express
Elmhurst Ave & Broadway At Sw Corner,-73.88143286863037 ,40.741881561104805,http://www.mta.info,E-M-R
63rd Dr & Queens Blvd At Sw Corner,-73.86199032607807 ,40.72972232717578,http://www.mta.info,E-M-R
64th Rd & Queens Blvd At Se Corner,-73.8596722485086 ,40.72895812599441,http://www.mta.info,E-M-R
63rd Rd & Queens Blvd At Sw Corner,-73.86260198530233 ,40.73003657549859,http://www.mta.info,E-M-R
104th St & Jamaica Ave At Se Corner,-73.84332306099625 ,40.69512324836428,http://www.mta.info,J-Z
158th St & Archer Ave At Sw Corner,-73.80248464369326 ,40.70165788065224,http://www.mta.info,E-J-Z
Parsons Blvd & Archer Ave At Ne Corner,-73.79984883939649 ,40.70286887123531,http://www.mta.info,E-J-Z
Marcy Ave & Broadway At Sw Corner (To Queens And Canarsie Only),-73.95822816199025 ,40.708209083960405,http://www.mta.info,J-M-Z
George St & Wycoff Ave At Ne Corner (To Manhattan Only),-73.904337529098 ,40.69614218062406,http://www.mta.info,L
Halsey St & Wycoff Ave At Se Corner (To Canarsie Only),-73.90546886549399 ,40.69583888498231,http://www.mta.info,L
Portland Ave & Fulton Ave At Nw Corner (To Manhattan Only),-73.97461919685482 ,40.68651161057217,http://www.mta.info,A-C
Clinton Ave & Fulton Ave At Se Corner (To Queens Only),-73.96673679392072 ,40.68326813620067,http://www.mta.info,A-C
Throop Ave & Fulton St At Nw Corner (To Manhattan Only),-73.94048392742192 ,40.68010640750195,http://www.mta.info,A-C
Utica Ave & Fulton St At Sw Corner,-73.92985242101199 ,40.67904588781045,http://www.mta.info,A-C
Stuyvesant Ave & Fulton St At Nw Corner,-73.93230739428823 ,40.679641094119006,http://www.mta.info,A-C
Washington Ave & Lafayette Ave At Se Corner,-73.96557301345956 ,40.6879882002744,http://www.mta.info,G
Clinton Ave & Lafayette Ave At Ne Corner,-73.96763330748804 ,40.68812196002281,http://www.mta.info,G
Classon Ave & Lafayette Ave At Nw Corner,-73.960197977037 ,40.689014780772226,http://www.mta.info,G
Bedford Ave & Lafayette Ave At Ne Corner,-73.95500775212935 ,40.689575112598966,http://www.mta.info,G
Bedford Ave & Lafayette Ave At Sw Corner,-73.95522175043153 ,40.68930147174215,http://www.mta.info,G
Union Ave & Broadway At Sw Corner,-73.95040876782716 ,40.705256839647284,http://www.mta.info,G
Union Ave & Broadway At Se Corner,-73.9500685266045 ,40.70525669255853,http://www.mta.info,G
8th St & 86th St At Se Corner,-73.97858263897811 ,40.5926720059376,http://www.mta.info,N
Ocean Ave & Parkside Ave At Ne Corner,-73.96165108237794 ,40.65523733533393,http://www.mta.info,B-Q
15th St & Avenue H At Se Corner,-73.96185456214664 ,40.629570716955534,http://www.mta.info,B-Q
Nostrand Ave & Flatbush Ave At Ne Corner,-73.94727231801674 ,40.63265183448837,http://www.mta.info,2-5
Prospect Expwy & Fort Hamilton Pkwy At Nw Corner,-73.97585101960016 ,40.64990374806003,http://www.mta.info,F
Mcdonald Ave & 18th Ave At Se Corner,-73.97674728962653 ,40.63063505195174,http://www.mta.info,F
5th Ave & 95th St At Ne Corner,-74.03079527221168 ,40.61596397641503,http://www.mta.info,R
Grand Concourse & 138th St At Ne Corner,-73.92968081705432 ,40.81316833440726,http://www.mta.info,4-5
Main St & Ellis St At Sw Corner,-74.25114200631394 ,40.51339533310707,http://www.mta.info,@
& Ellis St At S Corner,-74.24548477479975 ,40.5155323329509,http://www.mta.info,@
74th St & Roosevelt Ave At Ne Corner,-73.89135300037823 ,40.747019333704884,http://www.mta.info,7-E-F-M-R
82nd St & Roosevelt Ave At Nw Corner,-73.8840439977857 ,40.74777933210756,http://www.mta.info,7
90th St & Roosevelt Ave At Se Corner,-73.87645999897772 ,40.74830933386321,http://www.mta.info,7
90th St & Roosevelt Ave At Ne Corner,-73.87641000051764 ,40.74857533483444,http://www.mta.info,7
Woodhaven Blvd & Queens Blvd At Se Corner,-73.87023699845378 ,40.73311133230562,http://www.mta.info,E-M-R
Junction Blvd & Roosevelt Ave At Ne Corner,-73.8693529985634 ,40.74931933329799,http://www.mta.info,7-7 Express
103rd St & Roosevelt Ave At Se Corner,-73.86255499810636 ,40.74976833233207,http://www.mta.info,7
67th Dr & Queens Blvd At Sw Corner,-73.85206224970324 ,40.726072344881274,http://www.mta.info,E-M-R
67th Dr & Queens Blvd At Nw Corner,-73.85155899269661 ,40.72624043038656,http://www.mta.info,E-M-R
67th Ave & Queens Blvd At Ne Corner,-73.85318400005346 ,40.72706233367033,http://www.mta.info,E-M-R
71st & Queens Blvd At Se Corner,-73.84402099834796 ,40.72111433355471,http://www.mta.info,E-F-M-R
108th St & Queens Blvd At Nw Corner,-73.84440619811696 ,40.72192933634478,http://www.mta.info,E-F-M-R
Union Tpke & Queens Blvd At Se Corner,-73.83167800015762 ,40.7138123327575,http://www.mta.info,E-F
Union Tpke & Queens Blvd At Ne Corner,-73.82992799935452 ,40.71409433255614,http://www.mta.info,E-F
75th Rd & Queens Blvd At Se Corner (To Jamaica Only),-73.8366581441483 ,40.717903478924285,http://www.mta.info,E-F
Union Tpke & Queens Blvd At Nw Corner,-73.83199499777537 ,40.714695334485114,http://www.mta.info,E-F
Union Tpke & Queens Blvd At Sw Corner,-73.83158899916633 ,40.71500333284822,http://www.mta.info,E-F
Main St & Roosevelt Ave At Sw Corner,-73.83030099905999 ,40.759414332548936,http://www.mta.info,7-7 Express
Main St & Roosevelt Ave At Nw Corner,-73.83036799870715 ,40.75960833442686,http://www.mta.info,7-7 Express
Main St & Roosevelt Ave At Se Corner,-73.82993199812674 ,40.759522333341764,http://www.mta.info,7-7 Express
Main St & Roosevelt Ave At Ne Corner,-73.82917099806726 ,40.75989833231933,http://www.mta.info,7-7 Express
Main St & Roosevelt Ave At Ne Corner,-73.82899799917898 ,40.7599433343853,http://www.mta.info,7-7 Express
Van Wyck Blvd & Queens Blvd At Se Corner (To Jamaica Only),-73.81971834463326 ,40.709282664119115,http://www.mta.info,E-F
84th Rd & Queens Blvd At Ne Corner (To Manhattan Only),-73.81962899769286 ,40.709703332365265,http://www.mta.info,E-F
144th St & Hillside Ave At Sw Corner,-73.81198800062538 ,40.70492833186964,http://www.mta.info,F
Sutphin Blvd & Archer Ave At Sw Corner,-73.80794299873637 ,40.70041033287147,http://www.mta.info,E-J-Z
Sutphin Blvd & Archer Ave At Ne Corner,-73.80767199907717 ,40.70084833310922,http://www.mta.info,E-J-Z
Sutphin Blvd & Hillside Ave At Ne Corner,-73.80964099816511 ,40.705902334991706,http://www.mta.info,F
153rd St & Archer Ave At Ne Corner,-73.8018259982982 ,40.70220633344671,http://www.mta.info,E-J-Z
153rd St & Hillside Ave At Se Corner,-73.80429499875238 ,40.707137333168106,http://www.mta.info,F
153rd St & Hillside Ave At Ne Corner,-73.8044599992001 ,40.707380332645,http://www.mta.info,F
Parsons Blvd & Hillside Ave At Nw Corner,-73.80293699773799 ,40.70776133392093,http://www.mta.info,F
Parsons Blvd & Archer Ave At Ne Corner,-73.79975099911046 ,40.70263733363399,http://www.mta.info,E-J-Z
168th St & Hillside Ave At Sw Corner,-73.794700998238 ,40.709815333783,http://www.mta.info,F
169th St & Hillside Ave At Sw Corner,-73.79302300042811 ,40.7105133347703,http://www.mta.info,F
169th St & Hillside Ave At Se Corner,-73.79285700048258 ,40.710582333308665,http://www.mta.info,F
179th St & Hillside Ave At Nw Corner,-73.78508899992178 ,40.712500332185655,http://www.mta.info,F
179th St & Hillside Ave At Sw Corner,-73.78497999907064 ,40.71223433323766,http://www.mta.info,F
179th St & Hillside Ave At Ne Corner,-73.78442000058078 ,40.712653334223404,http://www.mta.info,F
179th St & Hillside Ave At Ne Corner,-73.78426600001661 ,40.71269933325781,http://www.mta.info,F
179th Pl & Hillside Ave At Sw Corner,-73.78362199853544 ,40.7125633320897,http://www.mta.info,F
180th St & Hillside Ave At Nw Corner,-73.78317899831369 ,40.71294033309191,http://www.mta.info,F
Midland Pkwy & Hillside Ave At Ne Corner,-73.78221499939062 ,40.71320033344571,http://www.mta.info,F
Beach 116th St & Wainwright Ct At Ne Corner,-73.83748899763063 ,40.580495334474335,http://www.mta.info,A-S
Beach 106th St & Rockaway Frwy At Sw Corner,-73.82754600119924 ,40.583398334397216,http://www.mta.info,A-S
Beach 106th St & Rockaway Frwy At Sw Corner,-73.82712399903613 ,40.583197331918264,http://www.mta.info,A-S
Beach 106th St & Rockaway Frwy At Nw Corner,-73.82641199886972 ,40.58369533286892,http://www.mta.info,A-S
Beach 98th St & Rockaway Frwy At Sw Corner,-73.82017999790078 ,40.585328333667825,http://www.mta.info,A-S
Beach 90th St & Rockaway Frwy At Ne Corner,-73.81420399851943 ,40.58800933278933,http://www.mta.info,A-S
Beach 89th St & Rockaway Frwy At Nw Corner,-73.81381300010352 ,40.588132334079,http://www.mta.info,A-S
Beach 67th St & Rockaway Frwy At Nw Corner,-73.79777999805533 ,40.59067433130926,http://www.mta.info,A
Beach 67th St & Rockaway Frwy At Sw Corner,-73.796149998268 ,40.59088133308121,http://www.mta.info,A
Beach 60th St & Rockaway Frwy At Se Corner,-73.7895850004663 ,40.59222333390649,http://www.mta.info,A
Beach 60th St & Rockaway Frwy At Ne Corner,-73.78944299956615 ,40.59250733415191,http://www.mta.info,A
Beach 59th Sr & Rockaway Frwy At Nw Corner,-73.78906899784194 ,40.592506333749384,http://www.mta.info,A
Beach 59th St & Rockaway Frwy At Se Corner,-73.7873489990345 ,40.592218333773545,http://www.mta.info,A
Beach 44th St & Edgemere Ave At Sw Corner,-73.77561899834765 ,40.592885331808475,http://www.mta.info,A
Beach 44th St & Edgemere Ave At Nw Corner,-73.77566099970804 ,40.59313733289074,http://www.mta.info,A
Beach 36th & Edgemere Ave At Ne Corner,-73.76828799763109 ,40.59552933283478,http://www.mta.info,A
Beach 35th & Rockaway Frwy At Nw Corner,-73.76801199669673 ,40.59566033196725,http://www.mta.info,A
Georgia Av & Fulton St At Sw Corner,-73.89917999910512 ,40.67683433434105,http://www.mta.info,J
South Portland Ave & Fulton St At Nw Corner,-73.97475740812716 ,40.68731736795085,http://www.mta.info,G
South Portland Ave & Fulton St At Sw Corner,-73.97470890760559 ,40.68708062434673,http://www.mta.info,G
Grant Ave & Pitkin Ave At Ne Corner,-73.865490998016 ,40.67673533215362,http://www.mta.info,A-S
77th St & Liberty Ave At Se Corner,-73.86006300002602 ,40.67917033324218,http://www.mta.info,A-S
Crescent St & Jamaica Ave At Ne Corner,-73.87357899946775 ,40.689615332160734,http://www.mta.info,J
85th St & Jamaica Ave At Ne Corner,-73.85907899830306 ,40.692648333514484,http://www.mta.info,J
103rd St & 159th Ave At Se Corner,-73.83043799789783 ,40.660217331617346,http://www.mta.info,A
80th St & Liberty Ave At Se Corner,-73.8576870005854 ,40.679297334305005,http://www.mta.info,A-S
Van Sinderen Ave & New Lots Ave At Sw Corner,-73.89933376076746 ,40.65901427590346,http://www.mta.info,L
Lirr Bay Ridge Divide & Sutter Ave At Nw Corner,-73.9019212345547 ,40.668610943326776,http://www.mta.info,L
Fort Greene Pl & Lafayette Ave At Nw Corner,-73.97671091047854 ,40.68712543542297,http://www.mta.info,G
86th St & Liberty Ave At Nw Corner,-73.85270699831446 ,40.67989433397688,http://www.mta.info,A-S
94th St & Liberty Ave At Nw Corner,-73.84507200014362 ,40.68037433490203,http://www.mta.info,A-S
85th St & Jamaica Ave At Se Corner,-73.85894700082545 ,40.69239533441307,http://www.mta.info,J
99th Pl & Hawtree St At Ne Corner,-73.83475600101244 ,40.66940933377363,http://www.mta.info,A
102nd St & Liberty Ave At Nw Corner,-73.83881000146654 ,40.6815533347072,http://www.mta.info,A-S
104th St & Liberty Ave At Se Corner,-73.836838999592 ,40.681876334569566,http://www.mta.info,A-S
111th St & Jamaica Blvd At Ne Corner,-73.83702699896985 ,40.6967963339988,http://www.mta.info,J
111th St & Liberty Ave At Se Corner,-73.83104699984148 ,40.68462033336924,http://www.mta.info,A-S
111th St & Liberty Ave At Ne Corner,-73.83112800098525 ,40.684896332485046,http://www.mta.info,A-S
121st St & Jamaica Ave At Sw Corner,-73.82931299969741 ,40.70023933288195,http://www.mta.info,J-Z
111th St & Jamaica Blvd At Se Corner,-73.83713367180694 ,40.697030010077086,http://www.mta.info,J
123rd St & Jamaica Ave At Se Corner,-73.82723799704063 ,40.700612334142,http://www.mta.info,J-Z
4th Ave & 95th St At Sw Corner,-74.03137299832682 ,40.61603433455997,http://www.mta.info,R
4th Ave & 93th St At Sw Corner,-74.0306469993565 ,40.6175953344302,http://www.mta.info,R
4th Ave & 86th St At Sw Corner,-74.02855400087357 ,40.62262333329445,http://www.mta.info,R
4th Ave & 85th St At Sw Corner,-74.02820299926896 ,40.62346933431497,http://www.mta.info,R
4th Ave & 77th St At Nw Corner,-74.02573500003717 ,40.629539333052115,http://www.mta.info,R
18th Ave & 85th St At Se Corner,-74.00189800178373 ,40.60768933427836,http://www.mta.info,D
20th Ave & 86th St At Sw Corner,-73.99844399855094 ,40.60457933508547,http://www.mta.info,D
New Utrecht Ave & 77th St At Ne Corner,-74.00028498510575 ,40.61401856501988,http://www.mta.info,D
20th Ave & 86th St At Ne Corner,-73.99802200063998 ,40.60463933259841,http://www.mta.info,D
Bay Pkwy & 86th St At Sw Corner,-73.99403599938897 ,40.60192233205816,http://www.mta.info,D
Bay Pkwy & 86th St At Nw Corner,-73.99387199841912 ,40.602119333602346,http://www.mta.info,D
Bay Pkwy & 86th St At Ne Corner,-73.99358300062532 ,40.60194633257769,http://www.mta.info,D
11th Ave & 62nd St At Nw Corner,-74.00413999884961 ,40.63056033165652,http://www.mta.info,N
New Utrecht Ave & 62nd St At Se Corner,-73.99686800036486 ,40.62563333263126,http://www.mta.info,D-N
14th Ave & 61st St At Nw Corner,-73.99694199848193 ,40.62711333327218,http://www.mta.info,D-N
14th Ave & 61st St At Nw Corner,-73.99670799952317 ,40.627369333733284,http://www.mta.info,D-N
New Utrecht Ave & 55th St At Sw Corner,-73.99561499933384 ,40.63154933374901,http://www.mta.info,D
New Utrecht Ave & 55th St At Ne Corner,-73.99528899990044 ,40.63156933265527,http://www.mta.info,D
Stillwell Ave & Surf Ave At Ne Corner,-73.9809510008082 ,40.57633333323688,http://www.mta.info,D-F-N-Q
8th St & Surf Ave At Nw Corner,-73.97688031254441 ,40.57577796075816,http://www.mta.info,F-Q
West 6th St & Neptune Ave At Ne Corner,-73.97444291400346 ,40.58057586189233,http://www.mta.info,F
Stillwell Ave & Bay 50th St At Sw Corner,-73.98373099857011 ,40.58799533277947,http://www.mta.info,D
Stillwell Ave & Bay 50th St At Sw Corner,-73.98379399957686 ,40.5883293341763,http://www.mta.info,D
Stillwell Ave & Bay 50th St At Se Corner,-73.98351300093485 ,40.58841833198872,http://www.mta.info,D
25th Ave & 86th St At Se Corner,-73.98719099934803 ,40.597764332903076,http://www.mta.info,D
25th Ave & 86th St At Ne Corner,-73.98697200081853 ,40.59796733266346,http://www.mta.info,D
Mcdonald Ave & Avenue X At Nw Corner,-73.97425499856473 ,40.590510334726055,http://www.mta.info,F
8th St & Avenue U At Ne Corner,-73.97894000012148 ,40.596439333081015,http://www.mta.info,N
Ocean Pkwy & Brighton Beach Rd At Nw Corner,-73.96933599754253 ,40.57657233277105,http://www.mta.info,Q
Ocean Pkwy & Brighton Beach Rd At Nw Corner,-73.96901599952594 ,40.57657833269076,http://www.mta.info,Q
Branch 6 St & Brighton Beach Rd At Sw Corner,-73.9618909989038 ,40.57736833446852,http://www.mta.info,B-Q
Branch 6 St & Brighton Beach Rd At Nw Corner,-73.96196100075413 ,40.57766033291207,http://www.mta.info,B-Q
Branch 6 St & Brighton Beach Rd At Nw Corner,-73.9617189991802 ,40.57770733230571,http://www.mta.info,B-Q
Branch 7 St & Brighton Beach Rd At Se Corner,-73.96017999987848 ,40.57772533365012,http://www.mta.info,B-Q
Mcdonald Ave & Gravesend Neck Rd At Sw Corner,-73.97365200145009 ,40.59509133420333,http://www.mta.info,F
Mcdonald Ave & Avenue U At Sw Corner,-73.97344990367358 ,40.59684752550608,http://www.mta.info,F
Mcdonald Ave & Avenue U At Se Corner,-73.97315290356447 ,40.59682952705162,http://www.mta.info,F
7th St & Highlawn Ave At Sw Corner,-73.98019899910173 ,40.60321233353368,http://www.mta.info,N
Mcdonald Ave & Avenue N At Nw Corner,-73.97418399826822 ,40.61431933367822,http://www.mta.info,F
Mcdonald Ave & Avenue N At Ne Corner,-73.97387100144839 ,40.614324333610135,http://www.mta.info,F
20th Ave & 64th St At Ne Corner,-73.9849020013077 ,40.61736033466754,http://www.mta.info,N
Mcdonald Ave & Avenue M At Se Corner,-73.97424499848627 ,40.61614133394053,http://www.mta.info,F
Mcdonald Ave & Bay Pkwy At Sw Corner,-73.97550199903705 ,40.62085333272244,http://www.mta.info,F
Mcdonald Ave & Bay Pkwy At Nw Corner,-73.97547899957007 ,40.62115733245694,http://www.mta.info,F
Mcdonald Ave & Avenue S At Ne Corner,-73.97235899970264 ,40.60219633218938,http://www.mta.info,F
Mcdonald Ave & Kings Hwy At Sw Corner,-73.97241300040159 ,40.6040313323989,http://www.mta.info,F
Mcdonald Ave & Avenue P At Sw Corner,-73.97311500128266 ,40.60860633183229,http://www.mta.info,F
15th St & Kings Hwy At Se Corner,-73.95798130254283 ,40.608776861994336,http://www.mta.info,B-Q
15th St & Kings Hwy At Se Corner,-73.9576980005248 ,40.60891133203713,http://www.mta.info,B-Q
15th St & Avenue M At Se Corner,-73.9594631884822 ,40.61801874987649,http://www.mta.info,B-Q
15th St & Avenue J At Se Corner,-73.960842436524 ,40.62514111462227,http://www.mta.info,B-Q
14th St & Voorhies Ave At Ne Corner,-73.95429599897034 ,40.58576833190826,http://www.mta.info,B-Q
15th St & Gravesend Neck Rd At Ne Corner,-73.95511999815861 ,40.595020332765365,http://www.mta.info,B-Q
15th St & Avenue U At Ne Corner,-73.95606399967805 ,40.598947333093754,http://www.mta.info,B-Q
4th Ave & Bay Ridge Ave At Nw Corner,-74.02360200111826 ,40.63476333208763,http://www.mta.info,R
4th Ave & 68th St At Nw Corner,-74.02329000136949 ,40.635496332982434,http://www.mta.info,R
4th Ave & 59th St At Nw Corner,-74.01787299998232 ,40.641620333690106,http://www.mta.info,N-R
4th Ave & 59th St At Ne Corner,-74.01761500070286 ,40.64144233289165,http://www.mta.info,N-R
4th Ave & 59th St At Ne Corner,-74.01748200004006 ,40.64157933206681,http://www.mta.info,N-R
8th Ave & 62nd St At Nw Corner,-74.01080707026192 ,40.63444011224366,http://www.mta.info,N
4th Ave & 53rd St At Se Corner,-74.01438599891205 ,40.64455833322409,http://www.mta.info,N-R
4th Ave & 53rd St At Sw Corner,-74.01458099922044 ,40.644653333320214,http://www.mta.info,N-R
4th Ave & 45th St At Nw Corner,-74.00970200058036 ,40.649413332988985,http://www.mta.info,N-R
4th Ave & 45th St At Nw Corner,-74.00951500092856 ,40.64959733151147,http://www.mta.info,N-R
4th Ave & 45th St At Ne Corner,-74.0092490009326 ,40.64950833177346,http://www.mta.info,N-R
New Utrecht Ave & 45th St At Nw Corner,-73.99447000133041 ,40.64033633331788,http://www.mta.info,D
New Utrecht Ave & 44th St At Ne Corner,-73.99407899984969 ,40.64118833295122,http://www.mta.info,D
4th Ave & 36th St At Nw Corner,-74.00448799991051 ,40.654492333818204,http://www.mta.info,D-N-R
4th Ave & 25th St At Sw Corner (To Bay Ridge And Coney Island Only),-73.99823099840269 ,40.66047833294765,http://www.mta.info,D-N-R
4th Ave & Prospect Ave At Se Corner (To Bay Ridge And Coney Island Onl,-73.9932319993847 ,40.66529133360581,http://www.mta.info,D-N-R
4th Ave & Prospect Ave At Sw Corner (To Manhattan Only),-73.99295900022814 ,40.665107334654444,http://www.mta.info,D-N-R
Smith St & 9th St At Ne Corner,-73.9973215521976 ,40.67461613827423,http://www.mta.info,F-G
Mcdonald Ave & Ditmas Ave At Sw Corner,-73.978201999085 ,40.63542433364413,http://www.mta.info,F
Mcdonald Ave & Cortelyou Rd At Se Corner,-73.97816999949566 ,40.63699633329025,http://www.mta.info,F
Mcdonald Ave & Church Ave At Sw Corner,-73.97954500044942 ,40.64263133179727,http://www.mta.info,F
Mcdonald Ave & Albemarle Rd At Sw Corner,-73.97999800135761 ,40.64494233376338,http://www.mta.info,F
Prospect Ave & Greenwood Ave At Ne Corner,-73.97609299926442 ,40.65180433292067,http://www.mta.info,F
Prospect Ave & Reeve Pl At Se Corner,-73.97591300043653 ,40.652608331815195,http://www.mta.info,F
Prospect Park West & 16th St At Ne Corner,-73.97968334812433 ,40.66015190711985,http://www.mta.info,F
Howard Pl & Windsor Pl At Ne Corner,-73.97996199922014 ,40.65944733298147,http://www.mta.info,F
Prospect Park West & Prospect Park Southwest At Ne Corner,-73.97899199897525 ,40.660763333897144,http://www.mta.info,F
Prospect Park West & 14th St At Sw Corner,-73.9796719982098 ,40.661430333413975,http://www.mta.info,F
Ocean Ave & Woodruff Ave At Nw Corner,-73.96192730762745 ,40.65414201773452,http://www.mta.info,B-Q
4th Ave & 9th St At Nw Corner,-73.98876500208304 ,40.67054533346724,http://www.mta.info,D-F-G-N-R
4th Ave & 9th St At Ne Corner,-73.98846000074828 ,40.67040733404496,http://www.mta.info,D-F-G-N-R
7th Ave & 9th St At Se Corner,-73.98145399922171 ,40.66667233290047,http://www.mta.info,F
8th Ave & 9th St At Se Corner,-73.97901400108114 ,40.66549233418463,http://www.mta.info,F
Portland Ave & Fulton Ave At Se Corner (To Queens Only),-73.97429400101971 ,40.68606733286539,http://www.mta.info,A-C
Portland Ave & Fulton Ave At Ne Corner (To Manhattan Only),-73.97436200120227 ,40.68647333212076,http://www.mta.info,A-C
Oxford St & Fulton Ave At Sw Corner (To Queens Only),-73.97343099983775 ,40.68572933158951,http://www.mta.info,A-C
Fort Washington Ave & Margaret Corbin Dr At Se Corner,-73.93440799829071 ,40.85855233394946,http://www.mta.info,A
Hillside Ave & Nagle Ave At Sw Corner,-73.92510999958967 ,40.86118333315202,http://www.mta.info,1
Hillside Ave & Nagle Ave At Sw Corner,-73.92507800142492 ,40.86118733379342,http://www.mta.info,1
Broadway & Dyckman St At Se Corner,-73.92727899789666 ,40.86524833234714,http://www.mta.info,A
Broadway & Dyckman St At Se Corner,-73.92741099997662 ,40.865296332435676,http://www.mta.info,A
Broadway & Dyckman St At Ne Corner,-73.92698999829618 ,40.865434334426496,http://www.mta.info,A
Broadway & 207th St At Sw Corner,-73.92141999933176 ,40.8677993318487,http://www.mta.info,A
Broadway & 207th St At Sw Corner,-73.92097399818871 ,40.86763233420843,http://www.mta.info,A
10th Ave & 207th St At Se Corner (Uptown Only),-73.91893799846203 ,40.864257334836495,http://www.mta.info,1
10th Ave & 207th St At Nw Corner (Downtown Only),-73.91889999967646 ,40.86470033259008,http://www.mta.info,1
Broadway & Isham St At Nw Corner,-73.91961099879694 ,40.86828833235758,http://www.mta.info,A
10th Ave & 215th St At Sw Corner (Downtown Only),-73.91548800059212 ,40.86939133240379,http://www.mta.info,1
10th Ave & 215th St At Se Corner (Uptown Only),-73.91523000013198 ,40.86930933442861,http://www.mta.info,1
10th Ave & 215th St At Ne Corner (Uptown Only),-73.9149539975582 ,40.869729333431586,http://www.mta.info,1
Broadway & 225th St At Nw Corner (Downtown Only),-73.91054200098311 ,40.87445433291213,http://www.mta.info,1
Broadway & 231st St At Sw Corner (To Manhattan Only),-73.9050239999337 ,40.878775334237474,http://www.mta.info,1
Broadway & 231st St At Se Corner (To Van Cortlandt Pk Only),-73.90482099794727 ,40.87869433217843,http://www.mta.info,1
Broadway & 231st St At Nw Corner (To Manhattan Only),-73.90475100049647 ,40.87916833254383,http://www.mta.info,1
Broadway & 238th St At Sw Corner (To Manhattan Only),-73.90091699890316 ,40.88483533244738,http://www.mta.info,1
Broadway & 238th St At Se Corner (To Van Cortlandt Pk Only),-73.90045699942358 ,40.88519133190926,http://www.mta.info,1
Broadway & 242nd St At Nw Corner,-73.89824699945511 ,40.89015733331891,http://www.mta.info,1
Broadway & 242nd St At Ne Corner,-73.89778099843389 ,40.88997333494025,http://www.mta.info,1
Hunter St & 44th Ave At Sw Corner,-73.94395261961846 ,40.74737296525846,http://www.mta.info,E-G-M
21st St & 44th Ave At Ne Corner,-73.94713042067924 ,40.74818629217324,http://www.mta.info,E-G-M
23rd St & 45th Rd At Ne Corner,-73.94534121866404 ,40.746241497509075,http://www.mta.info,7-7 Express
Broadway & 66th St At Se Corner,-73.98207866209414 ,40.77322975137946,http://www.mta.info,1-2
Broadway & 72nd St At Ne Corner,-73.9817353523898 ,40.778847671674576,http://www.mta.info,1-2-3
Lexington Ave & 86th St At Se Corner (Uptown Only),-73.95555269428722 ,40.77935592661296,http://www.mta.info,4-5-6-6 Express
Lexington Ave & 86th St At Ne Corner (Uptown Only),-73.95535155725098 ,40.77949593729173,http://www.mta.info,4-5-6-6 Express
Fort Washington Ave & 185th St At Se Corner,-73.93737685367361 ,40.853141106955185,http://www.mta.info,A
Broadway & 190th St At Ne Corner,-73.93265194616743 ,40.856466298637876,http://www.mta.info,1
Lincoln Ave & 138th St At Se Corner,-73.92698400160158 ,40.810700332228926,http://www.mta.info,6-6 Express
3rd Ave & 138th St At Ne Corner,-73.92673900037882 ,40.810852333784084,http://www.mta.info,6-6 Express
Alexander Ave & 138th St At Sw Corner,-73.92538499773866 ,40.81003233182601,http://www.mta.info,6-6 Express
Alexander Ave & 138th St At Nw Corner,-73.92537200075152 ,40.810280332252596,http://www.mta.info,6-6 Express
Grand Concourse & 149th St At Sw Corner,-73.92762800152943 ,40.818320332465866,http://www.mta.info,2-4-5
Grand Concourse & 149th St At Sw Corner,-73.9275899993303 ,40.81839133348431,http://www.mta.info,2-4-5
Grand Conccourse & 149th St At Se Corner,-73.92710100117941 ,40.81840533354332,http://www.mta.info,2-4-5
River Ave & 161st St At Sw Corner,-73.92619999943192 ,40.82754533407531,http://www.mta.info,4-B-D
River Ave & 161st St At Sw Corner,-73.92617000199589 ,40.82778633404833,http://www.mta.info,4-B-D
River Ave & 161st St At Se Corner,-73.92583899839582 ,40.82774033408812,http://www.mta.info,4-B-D
River Ave & 161st St At Nw Corner,-73.92604200036426 ,40.82796333251314,http://www.mta.info,4-B-D
River Ave & 161st St At Ne Corner,-73.92556098030582 ,40.82812986048972,http://www.mta.info,4-B-D
Brook Ave & 138th St At Se Corner (To Pelham Bay Pk Only),-73.91923200026538 ,40.8074293323718,http://www.mta.info,6
Cypress Ave & 138th St At Sw Corner (To Pelham Bay Pk Only),-73.91419499945327 ,40.80534333367584,http://www.mta.info,6
Cypress Ave & 138th St At Ne Corner (To Manhattan Only),-73.9136279981235 ,40.80530433368617,http://www.mta.info,6
Cypress Ave & 138th St At Ne Corner (To Manhattan Only),-73.9138479976539 ,40.80539333333165,http://www.mta.info,6
3rd Ave & 149th St At Se Corner (Northbound Only),-73.91772700126427 ,40.815860331740026,http://www.mta.info,2-5
Melrose Ave & 149th St At Nw Corner (To Manhattan Only),-73.91789099931842 ,40.816253333756215,http://www.mta.info,2-5
Walton Ave & 161st St At Nw Corner,-73.92416800172508 ,40.82735533357496,http://www.mta.info,4-B-D
Walton Ave & 161st St At Nw Corner,-73.92409299892361 ,40.8275103330275,http://www.mta.info,4-B-D
Southern Blvd & St Mary's St At Sw Corner (To Manhattan Only),-73.90806499762829 ,40.808179333484865,http://www.mta.info,6
Southern Blvd & St Mary's St At Nw Corner (To Manhattan Only),-73.90800199978732 ,40.80832233253988,http://www.mta.info,6
Southern Blvd & St Mary's St At Ne Corner (To Pelham Bay Pk Only),-73.90761799939597 ,40.808340333275225,http://www.mta.info,6
Southern Blvd & 149th St At Se Corner (To Pelham Bay Pk Only),-73.90420699854954 ,40.811848334412,http://www.mta.info,6
River Ave & 161st St At Sw Corner,-73.92631599080482 ,40.827671217828055,http://www.mta.info,4-B-D
River Ave & 161st St At Sw Corner,-73.92636250698298 ,40.82758845350746,http://www.mta.info,4-B-D
Beach 25th St & Rockaway Frwy At Nw Corner,-73.76217459665658 ,40.59944090391026,http://www.mta.info,A
Southern Blvd & 149th St At Nw Corner (To Manhattan Only),-73.90380599916577 ,40.81237233224166,http://www.mta.info,6
Jackson Ave & 152nd St At Ne Corner (Northbound Only),-73.90783599887972 ,40.81634933201338,http://www.mta.info,2-5
Jackson Ave & Westchester Ave At Ne Corner (To Manhattan Only),-73.90782500057603 ,40.81662933343579,http://www.mta.info,2-5
Westchester & 160th St At Sw Corner (To Manhattan Only),-73.90198699933664 ,40.81963433272637,http://www.mta.info,2-5
Prospect Ave & Longwood Ave At Ne Corner (Northbound Only),-73.90140499920474 ,40.819560333469056,http://www.mta.info,2-5
Prospect Ave & 160th St At Nw Corner (To Manhattan Only),-73.90167999798159 ,40.81990233280321,http://www.mta.info,2-5
Southern Blvd & Longwood Ave At Sw Corner (To Manhattan Only),-73.89648600036834 ,40.81632733299831,http://www.mta.info,6
Westchester Ave & Simpson St At Sw Corner (Northbound Only),-73.89299849055101 ,40.82389453995468,http://www.mta.info,2-5
Westchester Ave & Simpson St At Nw Corner (To Manhattan Only),-73.89311400091373 ,40.82417733431918,http://www.mta.info,2-5
Westchester Ave & Simpson St At Ne Corner (To Manhattan Only),-73.89271499862271 ,40.824402332110054,http://www.mta.info,2-5
Hunts Point Ave & 163rd St At Sw Corner,-73.89157499916625 ,40.82064133283881,http://www.mta.info,6-6 Express
Hunts Point Ave & 163rd St At Se Corner,-73.89039799828464 ,40.82079433296998,http://www.mta.info,6-6 Express
Whitlock Ave & Westchester Ave At Sw Corner,-73.88627499939356 ,40.827423334756844,http://www.mta.info,6
Elder Ave & Westchester Ave At Sw Corner,-73.87923799735968 ,40.82847333232799,http://www.mta.info,6
Elder Ave & Westchester Ave At Ne Corner,-73.87910899935268 ,40.82873333407745,http://www.mta.info,6
River Ave & 167th St At Ne Corner,-73.92140400162083 ,40.83586533388409,http://www.mta.info,4
River Ave & 167th St At Nw Corner,-73.92111799989196 ,40.835771333120775,http://www.mta.info,4
Grand Concourse & Mcclellan St At Se Corner,-73.9188219996783 ,40.83291233252658,http://www.mta.info,B-D
Grand Concourse & Mcclellan St At Sw Corner,-73.91939900157499 ,40.83311133321477,http://www.mta.info,B-D
Grand Concourse & 167th St At Se Corner,-73.91756199955027 ,40.834286333509056,http://www.mta.info,B-D
Grand Concourse & 167th St At Nw Corner,-73.91783800130969 ,40.83478833305914,http://www.mta.info,B-D
Jerome Ave & 170th St At Sw Corner,-73.91799300086431 ,40.84001433195344,http://www.mta.info,4
Jerome Ave & 170th St At Se Corner,-73.91777799897798 ,40.83992533344878,http://www.mta.info,4
Grand Concourse & 170th St At Sw Corner,-73.91416499712362 ,40.83866433341306,http://www.mta.info,B-D
Grand Concourse & 170th St At Se Corner,-73.9136059997319 ,40.83844433399977,http://www.mta.info,B-D
Grand Concourse & 171st St At Nw Corner,-73.91333299797185 ,40.84009733435799,http://www.mta.info,B-D
Jerome Ave & Cross Bronx Expwy At Sw Corner,-73.91464700051345 ,40.844700334306545,http://www.mta.info,4
Grand Concourse & 174th St At Nw Corner,-73.91160600062075 ,40.8448543333154,http://www.mta.info,B-D
Grand Concourse & 174th St At Nw Corner,-73.91128399972314 ,40.844877333168675,http://www.mta.info,B-D
Jerome Ave & 176th St At Nw Corner,-73.91208000179783 ,40.84832233403299,http://www.mta.info,4
Jerome Ave & 176th St At Se Corner,-73.91158400130523 ,40.84854633392108,http://www.mta.info,4
Grand Concourse & 175th St At Ne Corner,-73.9091439988344 ,40.84629733288411,http://www.mta.info,B-D
Southern Blvd & Freeman St At Nw Corner (To Manhattan Only),-73.89202000073976 ,40.83035133487228,http://www.mta.info,2-5
Jerome Ave & Burnside Ave At Sw Corner,-73.907976998709 ,40.85331333358525,http://www.mta.info,4
Grand Concourse & Echo Pl At Sw Corner,-73.90595299881589 ,40.849957334538665,http://www.mta.info,B-D
